"stop_id","stop_code","stop_name","stop_desc","stop_lat","stop_lon","zone_id","stop_url","location_type","parent_station","stop_timezone","wheelchair_boarding"
"1001002-04","","佐賀駅バスセンター 4番のりば","","33.26442","130.29926","1001002-04","","0","1001002","",""
"1002003-10","","市役所前(1)","","33.263755","130.300205","1002003-10","","0","1002003","",""
"1002004-20","","駅南本町(2)","","33.261857","130.298712","1002004-20","","0","1002004","",""
"1002005-20","","唐人町(2)","","33.25875","130.299111","1002005-20","","0","1002005","",""
"1002006-20","","白山(2)","","33.255358","130.299751","1002006-20","","0","1002006","",""
"1002007-20","","中の小路(2)","","33.254056","130.299978","1002007-20","","0","1002007","",""
"1002008-20","","県庁前(2)","","33.251526","130.30029","1002008-20","","0","1002008","",""
"1003011-00","","県庁前","","33.250532","130.298565","1003011-00","","0","1003011","",""
"1003013-20","","辻の堂(2)","","33.250109","130.294796","1003013-20","","0","1003013","",""
"1003014-00","","与賀町西","","33.249783","130.291639","1003014-00","","0","1003014","",""
"1003015-20","","西田代(2)","","33.249142","130.287336","1003015-20","","0","1003015","",""
"1003016-20","","道祖元町(2)","","33.2475","130.28505","1003016-20","","0","1003016","",""
"1003021-00","","佐賀女子短大・高校前","","33.24626","130.28627","1003021-00","","0","1003021","",""
"1003016-10","","道祖元町(1)","","33.24747","130.28499","1003016-10","","0","1003016","",""
"1003015-10","","西田代(1)","","33.24941","130.288058","1003015-10","","0","1003015","",""
"1003013-10","","辻の堂(1)","","33.250118","130.293428","1003013-10","","0","1003013","",""
"1003012-00","","県警本部前","","33.250695","130.298559","1003012-00","","0","1003012","",""
"1002008-10","","県庁前(1)","","33.251331","130.300168","1002008-10","","0","1002008","",""
"1002007-10","","中の小路(1)","","33.253821","130.299857","1002007-10","","0","1002007","",""
"1002006-10","","白山(1)","","33.254817","130.299688","1002006-10","","0","1002006","",""
"1002005-10","","唐人町(1)","","33.259143","130.298909","1002005-10","","0","1002005","",""
"1002004-10","","駅南本町(1)","","33.260865","130.298501","1002004-10","","0","1002004","",""
"1002003-20","","市役所前(2)","","33.263645","130.300045","1002003-20","","0","1002003","",""
"1003017-20","","与賀町(2)","","33.2481","130.29295","1003017-20","","0","1003017","",""
"1003018-03","","佐賀大学前(3)","","33.24476","130.29268","1003018-03","","0","1003018","",""
"1003019-20","","佐賀大学西(2)","","33.24455","130.28891","1003019-20","","0","1003019","",""
"1003020-20","","旭学園通り南(2)","","33.24419","130.28682","1003020-20","","0","1003020","",""
"1003020-10","","旭学園通り南(1)","","33.24424","130.28656","1003020-10","","0","1003020","",""
"1003019-10","","佐賀大学西(1)","","33.24448","130.28828","1003019-10","","0","1003019","",""
"1003018-01","","佐賀大学前(1)","","33.2456","130.29308","1003018-01","","0","1003018","",""
"1003017-10","","与賀町(1)","","33.24912","130.2925","1003017-10","","0","1003017","",""
"1001002-01","","佐賀駅バスセンター 1番のりば","","33.26451","130.29974","1001002-01","","0","1001002","",""
"1005023-20","","佐賀学園北(2)","","33.2677","130.30051","1005023-20","","0","1005023","",""
"1005024-20","","夢咲公園(2)","","33.26845","130.30363","1005024-20","","0","1005024","",""
"1005025-20","","ほほえみ館前(2)","","33.26884","130.30504","1005025-20","","0","1005025","",""
"1005026-20","","アルカディアSAGA前(2)","","33.269448","130.30813","1005026-20","","0","1005026","",""
"1005027-20","","夢咲コスモスタウン(2)","","33.27144","130.30849","1005027-20","","0","1005027","",""
"1005028-20","","夢咲コスモスタウン北(2)","","33.2734","130.308","1005028-20","","0","1005028","",""
"1005031-00","","ゆめタウン佐賀","","33.27497","130.30783","1005031-00","","0","1005031","",""
"1005028-10","","夢咲コスモスタウン北(1)","","33.27335","130.30812","1005028-10","","0","1005028","",""
"1005027-10","","夢咲コスモスタウン(1)","","33.27088","130.30873","1005027-10","","0","1005027","",""
"1005026-10","","アルカディアSAGA前(1)","","33.26914","130.30754","1005026-10","","0","1005026","",""
"1005025-10","","ほほえみ館前(1)","","33.26872","130.30528","1005025-10","","0","1005025","",""
"1005024-10","","夢咲公園(1)","","33.26836","130.30351","1005024-10","","0","1005024","",""
"1005023-10","","佐賀学園北(1)","","33.26755","130.30011","1005023-10","","0","1005023","",""
"1005029-20","","佐賀清和学園前(2)","","33.27059","130.31064","1005029-20","","0","1005029","",""
"1005030-20","","ぽかぽか温泉前(2)","","33.27265","130.31079","1005030-20","","0","1005030","",""
"1005030-10","","ぽかぽか温泉前(1)","","33.27275","130.31064","1005030-10","","0","1005030","",""
"1005029-10","","佐賀清和学園前(1)","","33.27034","130.3105","1005029-10","","0","1005029","",""
"1001002-03","","佐賀駅バスセンター 3番のりば","","33.26443","130.29936","1001002-03","","0","1001002","",""
"1006032-20","","県庁舎(2)","","33.2484","130.30063","1006032-20","","0","1006032","",""
"1006033-20","","サガテレビ前(2)","","33.24727","130.30084","1006033-20","","0","1006033","",""
"1006034-00","","佐賀城跡","","33.2467","130.30214","1006034-00","","0","1006034","",""
"1006033-10","","サガテレビ前(1)","","33.24704","130.3008","1006033-10","","0","1006033","",""
"1006032-10","","県庁舎(1)","","33.24837","130.30051","1006032-10","","0","1006032","",""
"1011035-20","","市役所南(2)","","33.262594","130.30124","1011035-20","","0","1011035","",""
"1011036-20","","戸上電機前(2)","","33.261911","130.303661","1011036-20","","0","1011036","",""
"1011037-20","","大財町(2)","","33.257961","130.304731","1011037-20","","0","1011037","",""
"1011038-20","","呉服元町(2)","","33.25357","130.30567","1011038-20","","0","1011038","",""
"1011039-01","","片田江(1)[片田江北]","","33.251869","130.306039","1011039-01","","0","1011039","",""
"1002009-10","","佐嘉神社前(1)","","33.251077","130.303443","1002009-10","","0","1002009","",""
"1011044-10","","ちやの木(1)","","33.24376","130.28418","1011044-10","","0","1011044","",""
"1011045-20","","本庄宮前(2)","","33.24215","130.28107","1011045-20","","0","1011045","",""
"1011046-20","","平松(2)","","33.23848","130.27859","1011046-20","","0","1011046","",""
"1011047-20","","中村(2)","","33.2343","130.27583","1011047-20","","0","1011047","",""
"1011048-20","","今津上町(2)","","33.23129","130.27348","1011048-20","","0","1011048","",""
"1011049-20","","今津下町(2)","","33.22997","130.27238","1011049-20","","0","1011049","",""
"1011050-20","","ブルースタジアム前(2)","","33.22677","130.26981","1011050-20","","0","1011050","",""
"1011051-20","","高太郎橋(2)","","33.22281","130.26779","1011051-20","","0","1011051","",""
"1011052-20","","丸目(2)","","33.21874","130.26453","1011052-20","","0","1011052","",""
"1011053-04","","本庄江橋(4)","","33.21919","130.25688","1011053-04","","0","1011053","",""
"1011054-20","","久保田橋(2)","","33.21989","130.24843","1011054-20","","0","1011054","",""
"1011055-20","","久富(2)","","33.21999","130.24654","1011055-20","","0","1011055","",""
"1011056-20","","くぼた特産物直売所前(2)","","33.21982","130.24345","1011056-20","","0","1011056","",""
"1011055-10","","久富(1)","","33.22015","130.2466","1011055-10","","0","1011055","",""
"1011054-10","","久保田橋(1)","","33.21992","130.24913","1011054-10","","0","1011054","",""
"1011053-03","","本庄江橋(3)","","33.21929","130.25804","1011053-03","","0","1011053","",""
"1011052-10","","丸目(1)","","33.21886","130.26448","1011052-10","","0","1011052","",""
"1011051-10","","高太郎橋(1)","","33.22279","130.26773","1011051-10","","0","1011051","",""
"1011050-10","","ブルースタジアム前(1)","","33.227","130.26985","1011050-10","","0","1011050","",""
"1011049-10","","今津下町(1)","","33.23011","130.2724","1011049-10","","0","1011049","",""
"1011048-10","","今津上町(1)","","33.23246","130.27426","1011048-10","","0","1011048","",""
"1011047-10","","中村(1)","","33.2357","130.2767","1011047-10","","0","1011047","",""
"1011046-10","","平松(1)","","33.23923","130.27895","1011046-10","","0","1011046","",""
"1011045-10","","本庄宮前(1)","","33.24212","130.28094","1011045-10","","0","1011045","",""
"1011044-20","","ちやの木(2)","","33.24376","130.28412","1011044-20","","0","1011044","",""
"1002009-20","","佐嘉神社前(2)","","33.251064","130.30207","1002009-20","","0","1002009","",""
"1011039-06","","片田江(6)[片田江西]","","33.251407","130.305366","1011039-06","","0","1011039","",""
"1011038-10","","呉服元町(1)","","33.254591","130.305372","1011038-10","","0","1011038","",""
"1011037-10","","大財町(1)","","33.257996","130.304587","1011037-10","","0","1011037","",""
"1011036-10","","戸上電機前(1)","","33.261887","130.303577","1011036-10","","0","1011036","",""
"1011035-10","","市役所南(1)","","33.262689","130.302003","1011035-10","","0","1011035","",""
"1003018-02","","佐賀大学前(2)","","33.24403","130.29375","1003018-02","","0","1003018","",""
"1012057-20","","佐賀大学東(2)","","33.24168","130.29431","1012057-20","","0","1012057","",""
"1012058-20","","なゆたの森病院前(2)","","33.23708","130.29425","1012058-20","","0","1012058","",""
"1012059-20","","本庄小学校前(2)","","33.23542","130.29381","1012059-20","","0","1012059","",""
"1012060-20","","本庄公民館前(2)","","33.23333","130.29384","1012060-20","","0","1012060","",""
"1012061-20","","鹿の子団地(2)","","33.23013","130.29398","1012061-20","","0","1012061","",""
"1012062-20","","鹿の子(2)","","33.22601","130.29424","1012062-20","","0","1012062","",""
"1012063-20","","鹿の子宮前(2)","","33.22184","130.29453","1012063-20","","0","1012063","",""
"1012064-20","","上古賀(2)","","33.2174","130.29291","1012064-20","","0","1012064","",""
"1012065-20","","下古賀(2)","","33.21346","130.29138","1012065-20","","0","1012065","",""
"1012066-20","","田中(2)","","33.21157","130.28831","1012066-20","","0","1012066","",""
"1012067-20","","東与賀支所前(2)","","33.20824","130.28726","1012067-20","","0","1012067","",""
"1012068-20","","東与賀郵便局前(2)","","33.2042","130.28619","1012068-20","","0","1012068","",""
"1012069-20","","作出(2)","","33.20152","130.28584","1012069-20","","0","1012069","",""
"1012070-20","","住吉(2)","","33.20119","130.27957","1012070-20","","0","1012070","",""
"1012071-20","","大野東(2)","","33.20237","130.27573","1012071-20","","0","1012071","",""
"1012072-20","","大野中(2)","","33.20281","130.27315","1012072-20","","0","1012072","",""
"1012073-00","","大野","","33.20308","130.27011","1012073-00","","0","1012073","",""
"1012072-10","","大野中(1)","","33.20282","130.27364","1012072-10","","0","1012072","",""
"1012071-10","","大野東(1)","","33.20226","130.27628","1012071-10","","0","1012071","",""
"1012070-10","","住吉(1)","","33.20123","130.2795","1012070-10","","0","1012070","",""
"1012069-10","","作出(1)","","33.20178","130.28583","1012069-10","","0","1012069","",""
"1012068-10","","東与賀郵便局前(1)","","33.20435","130.28616","1012068-10","","0","1012068","",""
"1012067-10","","東与賀支所前(1)","","33.20803","130.28725","1012067-10","","0","1012067","",""
"1012066-10","","田中(1)","","33.21119","130.28806","1012066-10","","0","1012066","",""
"1012065-10","","下古賀(1)","","33.21416","130.29161","1012065-10","","0","1012065","",""
"1012064-10","","上古賀(1)","","33.21756","130.29295","1012064-10","","0","1012064","",""
"1012063-10","","鹿の子宮前(1)","","33.22204","130.29453","1012063-10","","0","1012063","",""
"1012062-10","","鹿の子(1)","","33.22646","130.29414","1012062-10","","0","1012062","",""
"1012061-10","","鹿の子団地(1)","","33.22944","130.29401","1012061-10","","0","1012061","",""
"1012060-10","","本庄公民館前(1)","","33.23225","130.29376","1012060-10","","0","1012060","",""
"1012059-10","","本庄小学校前(1)","","33.23552","130.29362","1012059-10","","0","1012059","",""
"1012058-10","","なゆたの森病院前(1)","","33.23751","130.29411","1012058-10","","0","1012058","",""
"1012057-10","","佐賀大学東(1)","","33.24156","130.29396","1012057-10","","0","1012057","",""
"1018074-20","","長瀬町(2)","","33.247879","130.282472","1018074-20","","0","1018074","",""
"1018075-20","","地蔵前(2)","","33.246404","130.27735","1018075-20","","0","1018075","",""
"1018076-20","","普門寺(2)","","33.245706","130.274086","1018076-20","","0","1018076","",""
"1018077-20","","高橋(2)","","33.245314","130.272213","1018077-20","","0","1018077","",""
"1018078-20","","扇町東(2)","","33.244579","130.268005","1018078-20","","0","1018078","",""
"1018079-00","","扇町","","33.243948","130.263659","1018079-00","","0","1018079","",""
"1018080-01","","嘉瀬元町(1)","","33.243206","130.258568","1018080-01","","0","1018080","",""
"1018081-20","","森林公園東(2)","","33.242372","130.251781","1018081-20","","0","1018081","",""
"1018082-20","","森林公園前(2)","","33.242569","130.249887","1018082-20","","0","1018082","",""
"1018083-20","","嘉瀬橋(2)","","33.247333","130.240695","1018083-20","","0","1018083","",""
"1018084-03","","徳万(3)","","33.24794","130.23764","1018084-03","","0","1018084","",""
"1018085-20","","元小路(2)","","33.24189","130.23767","1018085-20","","0","1018085","",""
"1018086-20","","中副(2)","","33.23952","130.23799","1018086-20","","0","1018086","",""
"1018087-20","","思斉館前(2)","","33.23375","130.23943","1018087-20","","0","1018087","",""
"1001402-01","","久保田支所前（1）","","33.232076","130.239873","1001402-01","","0","1001402","",""
"1018088-00","","横江","","33.22612","130.24089","1018088-00","","0","1018088","",""
"1018089-20","","久富西(2)","","33.22044","130.24173","1018089-20","","0","1018089","",""
"1018089-10","","久富西(1)","","33.22029","130.24165","1018089-10","","0","1018089","",""
"1001402-02","","久保田支所前（2）","","33.231926","130.239736","1001402-02","","0","1001402","",""
"1018087-10","","思斉館前(1)","","33.23378","130.23935","1018087-10","","0","1018087","",""
"1018086-10","","中副(1)","","33.23941","130.237836","1018086-10","","0","1018086","",""
"1018085-10","","元小路(1)","","33.24169","130.23752","1018085-10","","0","1018085","",""
"1018084-04","","徳万(4)","","33.2478","130.2375","1018084-04","","0","1018084","",""
"1018083-10","","嘉瀬橋(1)","","33.247541","130.24056","1018083-10","","0","1018083","",""
"1018082-10","","森林公園前(1)","","33.242911","130.249199","1018082-10","","0","1018082","",""
"1018081-10","","森林公園東(1)","","33.242462","130.251835","1018081-10","","0","1018081","",""
"1018080-03","","嘉瀬元町(3)","","33.242856","130.256616","1018080-03","","0","1018080","",""
"1018078-10","","扇町東(1)","","33.244415","130.266433","1018078-10","","0","1018078","",""
"1018077-10","","高橋(1)","","33.245147","130.270842","1018077-10","","0","1018077","",""
"1018076-10","","普門寺(1)","","33.245655","130.273292","1018076-10","","0","1018076","",""
"1018075-10","","地蔵前(1)","","33.246535","130.277491","1018075-10","","0","1018075","",""
"1018074-10","","長瀬町(1)","","33.248191","130.283375","1018074-10","","0","1018074","",""
"1019091-00","","医療センター好生館","","33.241555","130.267985","1019091-00","","0","1019091","",""
"1020092-00","","水ヶ江大通り","","33.24954","130.30637","1020092-00","","0","1020092","",""
"1020093-10","","大隈重信記念館入口(1)","","33.24824","130.306808","1020093-10","","0","1020093","",""
"1020094-20","","竜校前(2)","","33.24588","130.30806","1020094-20","","0","1020094","",""
"1020095-10","","横小路(1)","","33.244397","130.308375","1020095-10","","0","1020095","",""
"1020096-01","","大崎(1)","","33.24174","130.31029","1020096-01","","0","1020096","",""
"1020097-20","","自動車学校前(2)","","33.23967","130.31569","1020097-20","","0","1020097","",""
"1020098-20","","南佐賀(2)","","33.23875","130.31766","1020098-20","","0","1020098","",""
"1020099-20","","東高校前(2)","","33.23731","130.32088","1020099-20","","0","1020099","",""
"1020100-20","","千々岩(2)","","33.23599","130.32393","1020100-20","","0","1020100","",""
"1020101-20","","光法西(2)","","33.23381","130.32872","1020101-20","","0","1020101","",""
"1020102-20","","光法(2)","","33.23177","130.33336","1020102-20","","0","1020102","",""
"1020103-20","","山領北(2)","","33.23066","130.33591","1020103-20","","0","1020103","",""
"1020104-20","","山領(2)","","33.22819","130.34134","1020104-20","","0","1020104","",""
"1020105-20","","野町(2)","","33.22703","130.34399","1020105-20","","0","1020105","",""
"1020106-20","","小杭(2)","","33.22479","130.34917","1020106-20","","0","1020106","",""
"1020107-20","","諸富支所前(2)","","33.22287","130.3533","1020107-20","","0","1020107","",""
"1020108-20","","諸富橋(2)","","33.22293","130.36049","1020108-20","","0","1020108","",""
"1020109-20","","昇開橋前(2)","","33.21791","130.36084","1020109-20","","0","1020109","",""
"1020110-20","","石塚(2)","","33.21554","130.35638","1020110-20","","0","1020110","",""
"1020111-20","","浮盃(2)","","33.21407","130.35289","1020111-20","","0","1020111","",""
"1020112-20","","寺井橋(2)","","33.21359","130.347","1020112-20","","0","1020112","",""
"1020113-10","","上下角","","33.212837","130.34223","1020113-10","","0","1020113","",""
"1020114-20","","佐野常民記念館入口(2)","","33.21267","130.33768","1020114-20","","0","1020114","",""
"1020115-20","","上早(2)","","33.21119","130.33548","1020115-20","","0","1020115","",""
"1020116-20","","中川副小学校前(2)","","33.20882","130.3354","1020116-20","","0","1020116","",""
"1020118-00","","早津江","","33.20546","130.3353","1020118-00","","0","1020118","",""
"1020117-00","","中早","","33.20673","130.33524","1020117-00","","0","1020117","",""
"1020116-10","","中川副小学校前(1)","","33.20877","130.33531","1020116-10","","0","1020116","",""
"1020115-10","","上早(1)","","33.21098","130.33537","1020115-10","","0","1020115","",""
"1020114-10","","佐野常民記念館入口(1)","","33.2128","130.33769","1020114-10","","0","1020114","",""
"1020113-20","","上下角","","33.212929","130.342592","1020113-20","","0","1020113","",""
"1020112-10","","寺井橋(1)","","33.21371","130.34642","1020112-10","","0","1020112","",""
"1020111-10","","浮盃(1)","","33.21412","130.35271","1020111-10","","0","1020111","",""
"1020110-10","","石塚(1)","","33.21553","130.35622","1020110-10","","0","1020110","",""
"1020109-10","","昇開橋前(1)","","33.2184","130.36099","1020109-10","","0","1020109","",""
"1020108-10","","諸富橋(1)","","33.22254","130.36145","1020108-10","","0","1020108","",""
"1020107-10","","諸富支所前(1)","","33.22268","130.35353","1020107-10","","0","1020107","",""
"1020106-10","","小杭(1)","","33.22456","130.34917","1020106-10","","0","1020106","",""
"1020105-10","","野町(1)","","33.226517","130.344875","1020105-10","","0","1020105","",""
"1020104-10","","山領(1)","","33.2282","130.34114","1020104-10","","0","1020104","",""
"1020103-10","","山領北(1)","","33.23013","130.33691","1020103-10","","0","1020103","",""
"1020102-10","","光法(1)","","33.232664","130.33116","1020102-10","","0","1020102","",""
"1020101-10","","光法西(1)","","33.23423","130.32762","1020101-10","","0","1020101","",""
"1020100-10","","千々岩(1)","","33.2355","130.32481","1020100-10","","0","1020100","",""
"1020099-10","","東高校前(1)","","33.23755","130.32016","1020099-10","","0","1020099","",""
"1020098-10","","南佐賀(1)","","33.23907","130.31671","1020098-10","","0","1020098","",""
"1020097-10","","自動車学校前(1)","","33.24046","130.31364","1020097-10","","0","1020097","",""
"1020096-02","","大崎(2)","","33.24173","130.31017","1020096-02","","0","1020096","",""
"1020095-20","","横小路(2)","","33.24328","130.308509","1020095-20","","0","1020095","",""
"1020094-10","","竜校前(1)","","33.24611","130.30795","1020094-10","","0","1020094","",""
"1020093-20","","大隈重信記念館入口(2)","","33.248487","130.306658","1020093-20","","0","1020093","",""
"1011039-05","","片田江(5)[片田江西]","","33.251284","130.305234","1011039-05","","0","1011039","",""
"1021119-20","","水ヶ江(2)","","33.2471","130.30908","1021119-20","","0","1021119","",""
"1021120-10","","朝日町(1)","","33.24748","130.31224","1021120-10","","0","1021120","",""
"1021121-20","","安住団地入口(2)","","33.24523","130.31444","1021121-20","","0","1021121","",""
"1021122-20","","武藤(2)","","33.24207","130.3161","1021122-20","","0","1021122","",""
"1021123-20","","中原眼科前(2)","","33.24112","130.32079","1021123-20","","0","1021123","",""
"1021124-20","","北川副小西(2)","","33.24029","130.32257","1021124-20","","0","1021124","",""
"1021125-20","","北川副公民館前(2)","","33.2391","130.32469","1021125-20","","0","1021125","",""
"1021126-20","","江上(2)","","33.23926","130.3277","1021126-20","","0","1021126","",""
"1021127-20","","増田宿(2)","","33.2388","130.33157","1021127-20","","0","1021127","",""
"1021128-20","","光法団地前(2)","","33.23587","130.33182","1021128-20","","0","1021128","",""
"1021129-20","","光法北(2)","","33.23342","130.33192","1021129-20","","0","1021129","",""
"1021130-20","","諸富橋北(2)","","33.22437","130.36456","1021130-20","","0","1021130","",""
"1021131-20","","味の素東門(2)","","33.22566","130.36603","1021131-20","","0","1021131","",""
"1021132-20","","徳富大橋(2)","","33.22955","130.37042","1021132-20","","0","1021132","",""
"1021133-20","","徳富(2)","","33.23484","130.37085","1021133-20","","0","1021133","",""
"1021134-00","","橋津","","33.23615","130.3698","1021134-00","","0","1021134","",""
"1021133-10","","徳富(1)","","33.23503","130.3708","1021133-10","","0","1021133","",""
"1021132-10","","徳富大橋(1)","","33.22923","130.3703","1021132-10","","0","1021132","",""
"1021131-10","","味の素東門(1)","","33.22527","130.3656","1021131-10","","0","1021131","",""
"1021130-10","","諸富橋北(1)","","33.22313","130.36362","1021130-10","","0","1021130","",""
"1021129-10","","光法北(1)","","33.23372","130.33179","1021129-10","","0","1021129","",""
"1021128-10","","光法団地前(1)","","33.23596","130.33171","1021128-10","","0","1021128","",""
"1021127-10","","増田宿(1)","","33.23855","130.33151","1021127-10","","0","1021127","",""
"1021126-10","","江上(1)","","33.23919","130.32738","1021126-10","","0","1021126","",""
"1021125-10","","北川副公民館前(1)","","33.23889","130.32327","1021125-10","","0","1021125","",""
"1021124-10","","北川副小西(1)","","33.23995","130.32237","1021124-10","","0","1021124","",""
"1021123-10","","中原眼科前(1)","","33.24092","130.3206","1021123-10","","0","1021123","",""
"1021122-10","","武藤(1)","","33.24208","130.31606","1021122-10","","0","1021122","",""
"1021121-10","","安住団地入口(1)","","33.24539","130.31435","1021121-10","","0","1021121","",""
"1021120-20","","朝日町(2)","","33.24732","130.3119","1021120-20","","0","1021120","",""
"1021119-10","","水ヶ江(1)","","33.247","130.30925","1021119-10","","0","1021119","",""
"1020096-03","","大崎(3)","","33.24135","130.30984","1020096-03","","0","1020096","",""
"1023135-20","","袋住宅前(2)","","33.23883","130.31024","1023135-20","","0","1023135","",""
"1023136-20","","八田橋(2)","","33.23708","130.31035","1023136-20","","0","1023136","",""
"1023137-20","","八田宮前(2)","","33.23366","130.31172","1023137-20","","0","1023137","",""
"1023138-20","","三角茶屋(2)","","33.2305","130.31232","1023138-20","","0","1023138","",""
"1023139-20","","南里(2)","","33.22661","130.31334","1023139-20","","0","1023139","",""
"1023140-20","","農業大学校前(2)","","33.22302","130.31348","1023140-20","","0","1023140","",""
"1023141-20","","南里南(2)","","33.22025","130.31345","1023141-20","","0","1023141","",""
"1023142-20","","坂井(2)","","33.21429","130.31332","1023142-20","","0","1023142","",""
"1023143-20","","西古賀(2)","","33.21078","130.31332","1023143-20","","0","1023143","",""
"1023144-20","","西川副小学校前(2)","","33.2074","130.31363","1023144-20","","0","1023144","",""
"1023145-20","","鋤崎(2)","","33.2024","130.31416","1023145-20","","0","1023145","",""
"1023146-20","","小々森入口(2)","","33.19677","130.31479","1023146-20","","0","1023146","",""
"1023147-20","","鹿江団地東(2)","","33.19364","130.31528","1023147-20","","0","1023147","",""
"1023148-20","","咾分(2)","","33.19181","130.31648","1023148-20","","0","1023148","",""
"1023149-20","","川副支所前(2)","","33.19159","130.31924","1023149-20","","0","1023149","",""
"1023150-20","","犬井道(2)","","33.18955","130.32022","1023150-20","","0","1023150","",""
"1023151-20","","平田分(2)","","33.18934","130.32281","1023151-20","","0","1023151","",""
"1023152-10","","和崎(1)","","33.19007","130.32912","1023152-10","","0","1023152","",""
"1023153-20","","中津(2)","","33.1898","130.33124","1023153-20","","0","1023153","",""
"1023154-20","","上の小路(2)","","33.18279","130.34258","1023154-20","","0","1023154","",""
"1023155-00","","大詫間","","33.17902","130.34241","1023155-00","","0","1023155","",""
"1023154-10","","上の小路(1)","","33.18272","130.34238","1023154-10","","0","1023154","",""
"1023153-10","","中津(1)","","33.18962","130.33096","1023153-10","","0","1023153","",""
"1023151-10","","平田分(1)","","33.18931","130.32361","1023151-10","","0","1023151","",""
"1023150-10","","犬井道(1)","","33.19018","130.31938","1023150-10","","0","1023150","",""
"1023149-10","","川副支所前(1)","","33.19149","130.31918","1023149-10","","0","1023149","",""
"1023148-10","","咾分(1)","","33.19175","130.31609","1023148-10","","0","1023148","",""
"1023147-10","","鹿江団地東(1)","","33.19365","130.31517","1023147-10","","0","1023147","",""
"1023146-10","","小々森入口(1)","","33.19642","130.31476","1023146-10","","0","1023146","",""
"1023145-10","","鋤崎(1)","","33.20293","130.31403","1023145-10","","0","1023145","",""
"1023144-10","","西川副小学校前(1)","","33.20747","130.31349","1023144-10","","0","1023144","",""
"1023143-10","","西古賀(1)","","33.2109","130.31322","1023143-10","","0","1023143","",""
"1023142-10","","坂井(1)","","33.21497","130.31325","1023142-10","","0","1023142","",""
"1023141-10","","南里南(1)","","33.22022","130.31332","1023141-10","","0","1023141","",""
"1023140-10","","農業大学校前(1)","","33.22356","130.31334","1023140-10","","0","1023140","",""
"1023139-10","","南里(1)","","33.22548","130.31334","1023139-10","","0","1023139","",""
"1023138-10","","三角茶屋(1)","","33.23002","130.31219","1023138-10","","0","1023138","",""
"1023137-10","","八田宮前(1)","","33.23359","130.31168","1023137-10","","0","1023137","",""
"1023136-10","","八田橋(1)","","33.23717","130.31021","1023136-10","","0","1023136","",""
"1023135-10","","袋住宅前(1)","","33.23871","130.3101","1023135-10","","0","1023135","",""
"1020096-04","","大崎(4)","","33.24031","130.3098","1020096-04","","0","1020096","",""
"1024156-20","","博物館前(2)","","33.24509","130.3015","1024156-20","","0","1024156","",""
"1024157-20","","赤松小学校前(2)","","33.24311","130.30197","1024157-20","","0","1024157","",""
"1024158-20","","中の館(2)","","33.24207","130.30209","1024158-20","","0","1024158","",""
"1024159-20","","鬼丸(2)","","33.24008","130.30219","1024159-20","","0","1024159","",""
"1025170-20","","袋入口(2)","","33.23743","130.30188","1025170-20","","0","1025170","",""
"1025171-00","","末次","","33.2343","130.30161","1025171-00","","0","1025171","",""
"1025172-20","","末次南(2)","","33.23069","130.30188","1025172-20","","0","1025172","",""
"1025173-00","","満穴","","33.2275","130.30203","1025173-00","","0","1025173","",""
"1025174-00","","中島","","33.22463","130.30246","1025174-00","","0","1025174","",""
"1025175-00","","立野北","","33.22261","130.30214","1025175-00","","0","1025175","",""
"1025176-00","","立野","","33.22041","130.30194","1025176-00","","0","1025176","",""
"1025177-00","","西船津","","33.21111","130.30115","1025177-00","","0","1025177","",""
"1025178-00","","佐房","","33.20796","130.29932","1025178-00","","0","1025178","",""
"1025179-00","","新村","","33.20406","130.29813","1025179-00","","0","1025179","",""
"1025180-00","","久町","","33.19907","130.29802","1025180-00","","0","1025180","",""
"1025181-00","","広江","","33.19752","130.29768","1025181-00","","0","1025181","",""
"1025182-20","","小々森(2)","","33.19707","130.30527","1025182-20","","0","1025182","",""
"1025183-00","","南部消防署前","","33.19746","130.31117","1025183-00","","0","1025183","",""
"1025182-10","","小々森(1)","","33.19682","130.30466","1025182-10","","0","1025182","",""
"1025174-02","","中島","","33.224605","130.302435","1025174-02","","0","1025174","",""
"1025172-10","","末次南(1)","","33.23127","130.30179","1025172-10","","0","1025172","",""
"1025170-10","","袋入口(1)","","33.23769","130.30173","1025170-10","","0","1025170","",""
"1024159-10","","鬼丸(1)","","33.23986","130.30209","1024159-10","","0","1024159","",""
"1024158-10","","中の館(1)","","33.24218","130.302","1024158-10","","0","1024158","",""
"1024157-10","","赤松小学校前(1)","","33.24397","130.3017","1024157-10","","0","1024157","",""
"1024156-10","","博物館前(1)","","33.24504","130.30141","1024156-10","","0","1024156","",""
"1024160-20","","大井樋(2)","","33.23916","130.29597","1024160-20","","0","1024160","",""
"1024161-20","","佐賀大学南(2)","","33.23955","130.28972","1024161-20","","0","1024161","",""
"1024162-20","","高伝寺前(2)","","33.23989","130.28452","1024162-20","","0","1024162","",""
"1024163-20","","平松交差点東(2)","","33.23997","130.28276","1024163-20","","0","1024163","",""
"1024164-20","","平松老人センター前(2)","","33.24153","130.27794","1024164-20","","0","1024164","",""
"1024165-20","","平林胃腸科前(2)","","33.24445","130.27637","1024165-20","","0","1024165","",""
"1024166-10","","護国神社前(1)","","33.25308","130.29344","1024166-10","","0","1024166","",""
"1024167-10","","成章中学校西(1)","","33.25603","130.29285","1024167-10","","0","1024167","",""
"1024168-03","","どんどんどんの森東(3)","","33.26151","130.2939","1024168-03","","0","1024168","",""
"1024169-10","","駅南本町西(1)","","33.26164","130.29707","1024169-10","","0","1024169","",""
"1024169-20","","駅南本町西(2)","","33.26157","130.29732","1024169-20","","0","1024169","",""
"1024168-04","","どんどんどんの森東(4)","","33.26138","130.29376","1024168-04","","0","1024168","",""
"1024167-20","","成章中学校西(2)","","33.25834","130.29314","1024167-20","","0","1024167","",""
"1024166-20","","護国神社前(2)","","33.25315","130.29355","1024166-20","","0","1024166","",""
"1003013-03","","辻の堂(３)","","33.251192","130.293963","1003013-03","","0","1003013","",""
"1024165-10","","平林胃腸科前(1)","","33.24385","130.27676","1024165-10","","0","1024165","",""
"1024164-10","","平松老人センター前(1)","","33.24168","130.27802","1024164-10","","0","1024164","",""
"1024163-10","","平松交差点東(1)","","33.24013","130.28218","1024163-10","","0","1024163","",""
"1024162-10","","高伝寺前(1)","","33.23997","130.28476","1024162-10","","0","1024162","",""
"1024161-10","","佐賀大学南(1)","","33.23956","130.29269","1024161-10","","0","1024161","",""
"1024160-10","","大井樋(1)","","33.23928","130.29607","1024160-10","","0","1024160","",""
"1027184-20","","十五(2)","","33.23542","130.25787","1027184-20","","0","1027184","",""
"1027185-20","","十五南(2)","","33.22996","130.25766","1027185-20","","0","1027185","",""
"1027186-20","","嘉瀬新町(2)","","33.22515","130.25755","1027186-20","","0","1027186","",""
"1027187-20","","新町中央(2)","","33.22192","130.25749","1027187-20","","0","1027187","",""
"1011053-02","","本庄江橋(2)","","33.21973","130.25766","1011053-02","","0","1011053","",""
"1011056-10","","くぼた特産物直売所前(1)","","33.22001","130.24435","1011056-10","","0","1011056","",""
"1011053-01","","本庄江橋(1)","","33.21976","130.25752","1011053-01","","0","1011053","",""
"1027187-10","","新町中央(1)","","33.22211","130.25745","1027187-10","","0","1027187","",""
"1027186-10","","嘉瀬新町(1)","","33.22516","130.25746","1027186-10","","0","1027186","",""
"1027185-10","","十五南(1)","","33.23038","130.25763","1027185-10","","0","1027185","",""
"1027184-10","","十五(1)","","33.23582","130.25787","1027184-10","","0","1027184","",""
"1018080-02","","嘉瀬元町(2)","","33.24265","130.25797","1018080-02","","0","1018080","",""
"1028189-20","","副島病院前(2)","","33.25698","130.30414","1028189-20","","0","1028189","",""
"1028190-20","","エスプラッツ前(2)","","33.254604","130.302427","1028190-20","","0","1028190","",""
"1011039-02","","片田江(2)[片田江東]","","33.251578","130.306742","1011039-02","","0","1011039","",""
"1028191-20","","材木橋(2)","","33.25187","130.308666","1028191-20","","0","1028191","",""
"1028192-20","","東佐賀(2)","","33.25195","130.31303","1028192-20","","0","1028192","",""
"1028193-10","","東田代(1)","","33.24865","130.31372","1028193-10","","0","1028193","",""
"1028194-20","","今宿町(2)","","33.24784","130.31554","1028194-20","","0","1028194","",""
"1028195-20","","枝吉(2)","","33.24773","130.31902","1028195-20","","0","1028195","",""
"1028196-20","","牛島下(2)","","33.24994","130.32187","1028196-20","","0","1028196","",""
"2015194-10","","高尾(1)","","33.25331","130.32291","2015194-10","","0","2015194","",""
"1028198-20","","老人センター前(2)","","33.25395","130.32541","1028198-20","","0","1028198","",""
"1028199-20","","巨勢公民館前(2)","","33.25498","130.32817","1028199-20","","0","1028199","",""
"1028200-10","","道崎(1)","","33.257638","130.336628","1028200-10","","0","1028200","",""
"1028199-10","","巨勢公民館前(1)","","33.25477","130.32823","1028199-10","","0","1028199","",""
"1028198-10","","老人センター前(1)","","33.25391","130.32568","1028198-10","","0","1028198","",""
"2015194-20","","高尾(2)","","33.25318","130.32303","2015194-20","","0","2015194","",""
"1028196-10","","牛島下(1)","","33.24995","130.32204","1028196-10","","0","1028196","",""
"1028195-10","","枝吉(1)","","33.24761","130.319","1028195-10","","0","1028195","",""
"1028194-10","","今宿町(1)","","33.24774","130.31575","1028194-10","","0","1028194","",""
"1028193-20","","東田代(2)","","33.24858","130.31358","1028193-20","","0","1028193","",""
"1028192-10","","東佐賀(1)","","33.25187","130.31293","1028192-10","","0","1028192","",""
"1028191-10","","材木橋(1)","","33.251942","130.309847","1028191-10","","0","1028191","",""
"1011039-03","","片田江(3)[片田江東]","","33.251478","130.306743","1011039-03","","0","1011039","",""
"1028190-10","","エスプラッツ前(1)","","33.254698","130.302336","1028190-10","","0","1028190","",""
"1028189-10","","副島病院前(1)","","33.25693","130.30367","1028189-10","","0","1028189","",""
"1029201-20","","矢ヶ部医院前(2)","","33.2478","130.32346","1029201-20","","0","1029201","",""
"1029202-20","","江上町(2)","","33.24789","130.32646","1029202-20","","0","1029202","",""
"1029203-00","","江上町東","","33.24777","130.32986","1029203-00","","0","1029203","",""
"1029204-00","","増田口","","33.2471","130.33307","1029204-00","","0","1029204","",""
"1029205-00","","犬尾","","33.24683","130.33946","1029205-00","","0","1029205","",""
"1029206-20","","東西(2)","","33.24828","130.34175","1029206-20","","0","1029206","",""
"1029207-20","","東の巨勢(2)","","33.24763","130.34868","1029207-20","","0","1029207","",""
"1029208-10","","蓮池魚町(1)","","33.24647","130.35368","1029208-10","","0","1029208","",""
"1029209-20","","蓮池公園前(2)","","33.24649","130.35605","1029209-20","","0","1029209","",""
"1029210-00","","蓮池郵便局前","","33.24947","130.35658","1029210-00","","0","1029210","",""
"1029211-00","","中地橋","","33.25014","130.36079","1029211-00","","0","1029211","",""
"1029212-00","","芙蓉校前","","33.25008","130.36304","1029212-00","","0","1029212","",""
"1029213-20","","小松(2)","","33.2487","130.36494","1029213-20","","0","1029213","",""
"1029214-20","","堂地(2)","","33.24766","130.36838","1029214-20","","0","1029214","",""
"1029215-00","","蒲田津橋","","33.24497","130.36946","1029215-00","","0","1029215","",""
"1029216-20","","渡端(2)","","33.24215","130.36942","1029216-20","","0","1029216","",""
"1029217-00","","大堂","","33.23857","130.36913","1029217-00","","0","1029217","",""
"1029216-10","","渡端(1)","","33.24156","130.36958","1029216-10","","0","1029216","",""
"1029214-10","","堂地(1)","","33.24735","130.36864","1029214-10","","0","1029214","",""
"1029213-10","","小松(1)","","33.2486","130.36508","1029213-10","","0","1029213","",""
"1029209-10","","蓮池公園前(1)","","33.24643","130.35608","1029209-10","","0","1029209","",""
"1029208-20","","蓮池魚町(2)","","33.24643","130.35374","1029208-20","","0","1029208","",""
"1029207-10","","東の巨勢(1)","","33.24753","130.34859","1029207-10","","0","1029207","",""
"1029206-10","","東西(1)","","33.24817","130.3418","1029206-10","","0","1029206","",""
"1029202-10","","江上町(1)","","33.2478","130.32683","1029202-10","","0","1029202","",""
"1029201-10","","矢ヶ部医院前(1)","","33.24767","130.32336","1029201-10","","0","1029201","",""
"1001002-02","","佐賀駅バスセンター 2番のりば","","33.26445","130.29951","1001002-02","","0","1001002","",""
"1030219-02","","堀江通(2)","","33.26412","130.29416","1030219-02","","0","1030219","",""
"1030220-20","","東神野(2)","","33.2658","130.29347","1030220-20","","0","1030220","",""
"1030221-20","","三溝(2)","","33.26921","130.29375","1030221-20","","0","1030221","",""
"1030222-20","","商業高校前(2)","","33.27101","130.29388","1030222-20","","0","1030222","",""
"1030223-20","","市文化会館前(2)","","33.27649","130.29311","1030223-20","","0","1030223","",""
"1030224-20","","総合体育館前(2)","","33.2789","130.2925","1030224-20","","0","1030224","",""
"1030225-20","","館橋(2)","","33.28109","130.29205","1030225-20","","0","1030225","",""
"1030226-20","","高木瀬小学校前(2)","","33.28419","130.2912","1030226-20","","0","1030226","",""
"1030227-03","","高木瀬公民館前(3)","","33.28669","130.28943","1030227-03","","0","1030227","",""
"1030228-20","","高木瀬工場団地(2)","","33.28812","130.28841","1030228-20","","0","1030228","",""
"1030229-20","","三本松(2)","","33.29486","130.2867","1030229-20","","0","1030229","",""
"1030230-20","","川原(2)","","33.29863","130.28543","1030230-20","","0","1030230","",""
"1030231-20","","福田(2)","","33.30158","130.28442","1030231-20","","0","1030231","",""
"1030232-20","","グリコ乳業前(2)","","33.304326","130.283391","1030232-20","","0","1030232","",""
"1030233-20","","尼寺(2)","","33.30856","130.28197","1030233-20","","0","1030233","",""
"1030234-02","","尼寺東(2)","","33.311","130.28474","1030234-02","","0","1030234","",""
"1030235-10","","真島(1)","","33.31116","130.2879","1030235-10","","0","1030235","",""
"1030236-20","","福島(2)","","33.31093","130.2925","1030236-20","","0","1030236","",""
"1030237-20","","西千布(2)","","33.31054","130.2973","1030237-20","","0","1030237","",""
"1030238-20","","千布(2)","","33.31033","130.29997","1030238-20","","0","1030238","",""
"1030239-20","","金立団地前(2)","","33.3122","130.30092","1030239-20","","0","1030239","",""
"1030240-20","","整肢学園前(2)","","33.315499","130.301028","1030240-20","","0","1030240","",""
"1030241-20","","金立(2)","","33.31881","130.30103","1030241-20","","0","1030241","",""
"1030242-20","","正現社前(2)","","33.32054","130.30232","1030242-20","","0","1030242","",""
"1030243-20","","来迎寺(2)","","33.32154","130.30588","1030243-20","","0","1030243","",""
"1030244-20","","若宮原(2)","","33.32251","130.31284","1030244-20","","0","1030244","",""
"1030245-20","","自動車試験場前(2)","","33.3237","130.31604","1030245-20","","0","1030245","",""
"1030246-00","","運転免許センター","","33.32443","130.31787","1030246-00","","0","1030246","",""
"1030245-10","","自動車試験場前(1)","","33.3236","130.31622","1030245-10","","0","1030245","",""
"1030244-10","","若宮原(1)","","33.32254","130.31331","1030244-10","","0","1030244","",""
"1030243-10","","来迎寺(1)","","33.32151","130.30641","1030243-10","","0","1030243","",""
"1030242-10","","正現社前(1)","","33.32061","130.30254","1030242-10","","0","1030242","",""
"1030241-10","","金立(1)","","33.31923","130.30133","1030241-10","","0","1030241","",""
"1030240-10","","整肢学園前(1)","","33.314824","130.301161","1030240-10","","0","1030240","",""
"1030239-10","","金立団地前(1)","","33.31202","130.30103","1030239-10","","0","1030239","",""
"1030238-10","","千布(1)","","33.3102","130.30026","1030238-10","","0","1030238","",""
"1030237-10","","西千布(1)","","33.31045","130.29726","1030237-10","","0","1030237","",""
"1030236-10","","福島(1)","","33.31089","130.29245","1030236-10","","0","1030236","",""
"1030234-01","","尼寺東(1)","","33.31089","130.28452","1030234-01","","0","1030234","",""
"1030233-10","","尼寺(1)","","33.30854","130.2821","1030233-10","","0","1030233","",""
"1030232-10","","グリコ乳業前(1)","","33.304763","130.283353","1030232-10","","0","1030232","",""
"1030231-10","","福田(1)","","33.30198","130.28438","1030231-10","","0","1030231","",""
"1030230-10","","川原(1)","","33.29902","130.28534","1030230-10","","0","1030230","",""
"1030229-10","","三本松(1)","","33.29468","130.28687","1030229-10","","0","1030229","",""
"1030228-10","","高木瀬工場団地(1)","","33.28853","130.2883","1030228-10","","0","1030228","",""
"1030227-01","","高木瀬公民館前(1)","","33.2865","130.2897","1030227-01","","0","1030227","",""
"1030226-10","","高木瀬小学校前(1)","","33.28436","130.29123","1030226-10","","0","1030226","",""
"1030225-10","","館橋(1)","","33.28097","130.29225","1030225-10","","0","1030225","",""
"1030224-10","","総合体育館前(1)","","33.27824","130.29289","1030224-10","","0","1030224","",""
"1030223-10","","市文化会館前(1)","","33.27626","130.29344","1030223-10","","0","1030223","",""
"1030222-10","","商業高校前(1)","","33.27176","130.2941","1030222-10","","0","1030222","",""
"1030221-10","","三溝(1)","","33.26902","130.29391","1030221-10","","0","1030221","",""
"1030220-10","","東神野(1)","","33.26747","130.29382","1030220-10","","0","1030220","",""
"1030219-01","","堀江通(1)","","33.26472","130.29364","1030219-01","","0","1030219","",""
"1030218-03","","佐賀駅北口(3)","","33.26462","130.295976","1030218-03","","0","1030218","",""
"1030247-00","","開拓入口","","33.32502","130.30476","1030247-00","","0","1030247","",""
"1030248-20","","弘学館前(2)","","33.32813","130.30524","1030248-20","","0","1030248","",""
"1030249-20","","金立いこいの広場(2)","","33.32832","130.30893","1030249-20","","0","1030249","",""
"1030250-20","","島崎(2)","","33.32487","130.30865","1030250-20","","0","1030250","",""
"1030250-10","","島崎(1)","","33.32523","130.30855","1030250-10","","0","1030250","",""
"1030249-10","","金立いこいの広場(1)","","33.32822","130.30862","1030249-10","","0","1030249","",""
"1030248-10","","弘学館前(1)","","33.328","130.30528","1030248-10","","0","1030248","",""
"1030234-03","","尼寺東(3)","","33.309635","130.283862","1030234-03","","0","1030234","",""
"1030235-20","","真島(2)","","33.31087","130.28856","1030235-20","","0","1030235","",""
"1032251-20","","藤木(2)","","33.27032","130.30075","1032251-20","","0","1032251","",""
"1032252-20","","致遠館前(2)","","33.27206","130.30034","1032252-20","","0","1032252","",""
"1032253-20","","佐賀北警察署前(2)","","33.27436","130.29971","1032253-20","","0","1032253","",""
"1032254-20","","市文化会館東(2)","","33.27786","130.29878","1032254-20","","0","1032254","",""
"1032255-00","","東高木","","33.28245","130.2984","1032255-00","","0","1032255","",""
"1032256-20","","寄人(2)","","33.28611","130.29788","1032256-20","","0","1032256","",""
"1032257-20","","城北団地(2)","","33.28786","130.29782","1032257-20","","0","1032257","",""
"1032258-00","","二俣","","33.29016","130.29794","1032258-00","","0","1032258","",""
"1032261-20","","グラスコート佐賀(2)","","33.30038","130.29715","1032261-20","","0","1032261","",""
"1032262-20","","千布南(2)","","33.30606","130.29948","1032262-20","","0","1032262","",""
"1032263-20","","東千布(2)","","33.30748","130.30051","1032263-20","","0","1032263","",""
"1032264-00","","金立公民館前","","33.30748","130.30341","1032264-00","","0","1032264","",""
"1032263-10","","東千布(1)","","33.30773","130.3009","1032263-10","","0","1032263","",""
"1032262-10","","千布南(1)","","33.30611","130.29964","1032262-10","","0","1032262","",""
"1032261-10","","グラスコート佐賀(1)","","33.29991","130.29741","1032261-10","","0","1032261","",""
"1032257-10","","城北団地(1)","","33.28812","130.29796","1032257-10","","0","1032257","",""
"1032256-10","","寄人(1)","","33.28542","130.29799","1032256-10","","0","1032256","",""
"1032254-10","","市文化会館東(1)","","33.27874","130.29865","1032254-10","","0","1032254","",""
"1032253-10","","佐賀北警察署前(1)","","33.27387","130.3","1032253-10","","0","1032253","",""
"1032252-10","","致遠館前(1)","","33.27199","130.30043","1032252-10","","0","1032252","",""
"1032251-10","","藤木(1)","","33.2699","130.30101","1032251-10","","0","1032251","",""
"1032259-20","","金立ケアセンター前(2)","","33.29759","130.29738","1032259-20","","0","1032259","",""
"1032260-10","","健康運動センター(1)","","33.29786","130.29366","1032260-10","","0","1032260","",""
"1032259-10","","金立ケアセンター前(1)","","33.29771","130.29739","1032259-10","","0","1032259","",""
"1030218-02","","佐賀駅北口(2)","","33.26554","130.29716","1030218-02","","0","1030218","",""
"1036265-20","","九電工前(2)","","33.26682","130.29521","1036265-20","","0","1036265","",""
"1036266-20","","電通通り(2)","","33.26617","130.29106","1036266-20","","0","1036266","",""
"1036267-20","","真生幼稚園前(2)","","33.26627","130.28728","1036267-20","","0","1036267","",""
"1036268-20","","神野西四丁目(2)","","33.26844","130.28697","1036268-20","","0","1036268","",""
"1036269-20","","西九大神園前(2)","","33.27185","130.28648","1036269-20","","0","1036269","",""
"1036270-20","","若楠小学校前(2)","","33.27591","130.28592","1036270-20","","0","1036270","",""
"1036271-20","","運輸支局西(2)","","33.27896","130.28476","1036271-20","","0","1036271","",""
"1036272-20","","北陵高校前(2)","","33.28135","130.28403","1036272-20","","0","1036272","",""
"1036273-20","","市営高木団地(2)","","33.28335","130.28377","1036273-20","","0","1036273","",""
"1036274-20","","高木瀬西四丁目(2)","","33.28527","130.28433","1036274-20","","0","1036274","",""
"1036275-20","","高木瀬西五丁目(2)","","33.28577","130.28735","1036275-20","","0","1036275","",""
"1036276-04","","アルタ高木瀬店前(4)","","33.29217","130.28552","1036276-04","","0","1036276","",""
"1036277-00","","佐賀記念病院","","33.29309","130.28262","1036277-00","","0","1036277","",""
"1036276-03","","アルタ高木瀬店前(3)","","33.29207","130.28584","1036276-03","","0","1036276","",""
"1030227-02","","高木瀬公民館(2)","","33.285929","130.28889","1030227-02","","0","1030227","",""
"1036275-10","","高木瀬西五丁目(1)","","33.28566","130.28714","1036275-10","","0","1036275","",""
"1036274-10","","高木瀬西四丁目(1)","","33.28524","130.28456","1036274-10","","0","1036274","",""
"1036273-10","","市営高木団地(1)","","33.283418","130.283884","1036273-10","","0","1036273","",""
"1036272-10","","北陵高校前(1)","","33.28119","130.28415","1036272-10","","0","1036272","",""
"1036271-10","","運輸支局西(1)","","33.27897","130.28485","1036271-10","","0","1036271","",""
"1036270-10","","若楠小学校前(1)","","33.2752","130.28618","1036270-10","","0","1036270","",""
"1036269-10","","西九大神園前(1)","","33.27205","130.28662","1036269-10","","0","1036269","",""
"1036268-10","","神野西四丁目(1)","","33.26825","130.28706","1036268-10","","0","1036268","",""
"1036267-10","","真生幼稚園前(1)","","33.26582","130.28799","1036267-10","","0","1036267","",""
"1036266-10","","電通通り(1)","","33.26625","130.29097","1036266-10","","0","1036266","",""
"1036265-10","","九電工前(1)","","33.26694","130.29567","1036265-10","","0","1036265","",""
"1030218-01","","佐賀駅北口(1)","","33.26532","130.29736","1030218-01","","0","1030218","",""
"1050278-20","","西神野(2)","","33.26372","130.29018","1050278-20","","0","1050278","",""
"1050279-20","","昭和橋(2)","","33.26288","130.28442","1050279-20","","0","1050279","",""
"1050280-20","","神野公園(2)","","33.2647","130.2818","1050280-20","","0","1050280","",""
"1050281-20","","八戸溝郵便局前(2)","","33.26477","130.27794","1050281-20","","0","1050281","",""
"1050282-20","","鍋島団地(2)","","33.266","130.27638","1050282-20","","0","1050282","",""
"1050283-20","","鍋島新村(2)","","33.26877","130.27585","1050283-20","","0","1050283","",""
"1050284-20","","ＪＡ佐賀市せいぶ支所前(2)","","33.2719","130.27539","1050284-20","","0","1050284","",""
"1050285-20","","鍋島小学校前(2)","","33.27338","130.27078","1050285-20","","0","1050285","",""
"1050286-20","","鍋島一丁目(2)","","33.2757","130.2706","1050286-20","","0","1050286","",""
"1050287-20","","津留(2)","","33.27883","130.26991","1050287-20","","0","1050287","",""
"1050295-20","","医学部入口(2)","","33.28187","130.26909","1050295-20","","0","1050295","",""
"1050296-00","","佐賀大学病院","","33.2835","130.26709","1050296-00","","0","1050296","",""
"1050295-10","","医学部入口(1)","","33.28265","130.26884","1050295-10","","0","1050295","",""
"1050287-10","","津留(1)","","33.27949","130.26993","1050287-10","","0","1050287","",""
"1050286-10","","鍋島一丁目(1)","","33.2756","130.27065","1050286-10","","0","1050286","",""
"1050285-10","","鍋島小学校前(1)","","33.27367","130.2709","1050285-10","","0","1050285","",""
"1050284-10","","ＪＡ佐賀市せいぶ支所前(1)","","33.27179","130.27553","1050284-10","","0","1050284","",""
"1050283-10","","鍋島新村(1)","","33.26885","130.27589","1050283-10","","0","1050283","",""
"1050282-10","","鍋島団地(1)","","33.26589","130.27649","1050282-10","","0","1050282","",""
"1050281-10","","八戸溝郵便局前(1)","","33.26486","130.27818","1050281-10","","0","1050281","",""
"1050280-10","","神野公園(1)","","33.26483","130.28218","1050280-10","","0","1050280","",""
"1050279-10","","昭和橋(1)","","33.263","130.2841","1050279-10","","0","1050279","",""
"1050278-10","","西神野(1)","","33.26375","130.28925","1050278-10","","0","1050278","",""
"1030219-03","","堀江通(3)","","33.26395","130.29208","1030219-03","","0","1030219","",""
"1050288-20","","鍋島シェスト前(2)","","33.28006","130.26875","1050288-20","","0","1050288","",""
"1050289-20","","鍋島西団地(2)","","33.27979","130.2648","1050289-20","","0","1050289","",""
"1050290-20","","医学部西(2)","","33.2834","130.26315","1050290-20","","0","1050290","",""
"1050291-20","","鍋島五丁目(2)","","33.28678","130.26314","1050291-20","","0","1050291","",""
"1050292-10","","鍋島本村(1)","","33.28828","130.26389","1050292-10","","0","1050292","",""
"1050293-20","","鍋島六丁目(2)","","33.2884","130.26564","1050293-20","","0","1050293","",""
"1050294-20","","医学部北(2)","","33.28627","130.26839","1050294-20","","0","1050294","",""
"1050294-10","","医学部北(1)","","33.28671","130.26825","1050294-10","","0","1050294","",""
"1050293-10","","鍋島六丁目(1)","","33.28833","130.2661","1050293-10","","0","1050293","",""
"1050292-20","","鍋島本村(2)","","33.28822","130.26437","1050292-20","","0","1050292","",""
"1050291-10","","鍋島五丁目(1)","","33.28619","130.26315","1050291-10","","0","1050291","",""
"1050290-10","","医学部西(1)","","33.28292","130.26328","1050290-10","","0","1050290","",""
"1050289-10","","鍋島西団地(1)","","33.27991","130.26523","1050289-10","","0","1050289","",""
"1050288-10","","鍋島シェスト前(1)","","33.28013","130.26846","1050288-10","","0","1050288","",""
"1051297-20","","西九大神園南(2)","","33.26943","130.28459","1051297-20","","0","1051297","",""
"1051298-20","","常盤団地入口(2)","","33.2689","130.28163","1051298-20","","0","1051298","",""
"1051299-20","","鍋島東団地(2)","","33.26871","130.28021","1051299-20","","0","1051299","",""
"1051300-20","","開成三丁目(2)","","33.26971","130.27791","1051300-20","","0","1051300","",""
"1051301-20","","アルタ東(2)","","33.2716","130.27756","1051301-20","","0","1051301","",""
"1051302-10","","卸センター前(1)","","33.27259","130.27696","1051302-10","","0","1051302","",""
"1051301-10","","アルタ東(1)","","33.27168","130.27766","1051301-10","","0","1051301","",""
"1051300-10","","開成三丁目(1)","","33.26984","130.27797","1051300-10","","0","1051300","",""
"1051299-10","","鍋島東団地(1)","","33.26874","130.28003","1051299-10","","0","1051299","",""
"1051298-10","","常盤団地入口(1)","","33.269","130.28152","1051298-10","","0","1051298","",""
"1051297-10","","西九大神園南(1)","","33.26961","130.28505","1051297-10","","0","1051297","",""
"1056303-20","","大財五丁目(2)","","33.26181","130.30847","1056303-20","","0","1056303","",""
"1056304-20","","大財六丁目(2)","","33.26247","130.31151","1056304-20","","0","1056304","",""
"1056305-20","","下村河畔(2)","","33.26328","130.31578","1056305-20","","0","1056305","",""
"1056306-20","","佐賀中部病院西(2)","","33.264","130.31702","1056306-20","","0","1056306","",""
"1056307-20","","東中野(2)","","33.26653","130.31575","1056307-20","","0","1056307","",""
"1056308-20","","兵庫小学校西(2)","","33.27217","130.31754","1056308-20","","0","1056308","",""
"1056309-00","","下渕南","","33.2736","130.31734","1056309-00","","0","1056309","",""
"1056310-00","","下渕","","33.27771","130.31651","1056310-00","","0","1056310","",""
"1056311-00","","妙常寺前","","33.28048","130.31544","1056311-00","","0","1056311","",""
"1056312-00","","うえむら病院前","","33.28223","130.31462","1056312-00","","0","1056312","",""
"1056313-20","","兵庫団地前(2)","","33.28438","130.31471","1056313-20","","0","1056313","",""
"1056314-00","","初町","","33.28874","130.31458","1056314-00","","0","1056314","",""
"1056315-00","","東渕","","33.29063","130.31419","1056315-00","","0","1056315","",""
"1056316-00","","渕頭","","33.29187","130.31374","1056316-00","","0","1056316","",""
"1056317-20","","かささぎの里前(2)","","33.30112","130.31317","1056317-20","","0","1056317","",""
"1056318-20","","徳永(2)","","33.30288","130.31419","1056318-20","","0","1056318","",""
"0000003-01","","きりんむら(2)","","33.30484","130.315321","0000003-01","","0","0000003","",""
"1056319-20","","白鬚神社前(2)","","33.30373","130.31888","1056319-20","","0","1056319","",""
"1056320-20","","村徳永(2)","","33.30809","130.31906","1056320-20","","0","1056320","",""
"1056321-20","","工業団地事務所前(2)","","33.31185","130.31859","1056321-20","","0","1056321","",""
"1056322-20","","久保泉工業団地西(2)","","33.31261","130.31964","1056322-20","","0","1056322","",""
"1056323-00","","久保泉工業団地","","33.31266","130.32291","1056323-00","","0","1056323","",""
"1056322-10","","久保泉工業団地西(1)","","33.31247","130.31967","1056322-10","","0","1056322","",""
"1056321-10","","工業団地事務所前(1)","","33.3112","130.31876","1056321-10","","0","1056321","",""
"1056320-10","","村徳永(1)","","33.30783","130.31924","1056320-10","","0","1056320","",""
"1056319-10","","白鬚神社前(1)","","33.30376","130.31834","1056319-10","","0","1056319","",""
"0000003-02","","きりんむら(1)","","33.30479","130.315401","0000003-02","","0","0000003","",""
"1056318-10","","徳永(1)","","33.30281","130.31404","1056318-10","","0","1056318","",""
"1056317-10","","かささぎの里前(1)","","33.30116","130.31329","1056317-10","","0","1056317","",""
"1056313-10","","兵庫団地前(1)","","33.28435","130.31482","1056313-10","","0","1056313","",""
"1056308-10","","兵庫小学校西(1)","","33.27246","130.3176","1056308-10","","0","1056308","",""
"1056307-10","","東中野(1)","","33.26635","130.31604","1056307-10","","0","1056307","",""
"1056306-10","","佐賀中部病院西(1)","","33.26427","130.31714","1056306-10","","0","1056306","",""
"1056305-10","","下村河畔(1)","","33.26313","130.31523","1056305-10","","0","1056305","",""
"1056304-10","","大財六丁目(1)","","33.26221","130.31102","1056304-10","","0","1056304","",""
"1056303-10","","大財五丁目(1)","","33.26163","130.30818","1056303-10","","0","1056303","",""
"1024168-02","","どんどんどんの森東(2)","","33.2628","130.2935","1024168-02","","0","1024168","",""
"1058324-20","","どんどんどんの森前(2)","","33.25914","130.29182","1058324-20","","0","1058324","",""
"1058325-20","","多布施(2)","","33.25898","130.29041","1058325-20","","0","1058325","",""
"1058326-20","","多布施橋(2)","","33.25855","130.28633","1058326-20","","0","1058326","",""
"1058327-20","","佐賀工業高校前(2)","","33.2579","130.28421","1058327-20","","0","1058327","",""
"1058328-20","","中折(2)","","33.25735","130.2823","1058328-20","","0","1058328","",""
"1058329-20","","北高前(2)","","33.25642","130.27798","1058329-20","","0","1058329","",""
"1058330-20","","新栄小前(2)","","33.25628","130.27544","1058330-20","","0","1058330","",""
"1058331-20","","新栄小西(2)","","33.25608","130.27116","1058331-20","","0","1058331","",""
"1058332-20","","鍋島駅南(2)","","33.25579","130.26526","1058332-20","","0","1058332","",""
"1058333-20","","鍋島駅西(2)","","33.2617","130.26306","1058333-20","","0","1058333","",""
"1058334-20","","江頭西(2)","","33.26419","130.26262","1058334-20","","0","1058334","",""
"1058335-00","","市営江頭団地前","","33.2650488","130.2615934","1058335-00","","0","1058335","",""
"1058336-10","","クレオパーク鍋島北(1)","","33.26663","130.25948","1058336-10","","0","1058336","",""
"1058337-10","","クレオパーク鍋島(1)","","33.26495","130.25958","1058337-10","","0","1058337","",""
"1058334-10","","江頭西(1)","","33.26382","130.26279","1058334-10","","0","1058334","",""
"1058333-10","","鍋島駅西(1)","","33.26146","130.26323","1058333-10","","0","1058333","",""
"1058332-10","","鍋島駅南(1)","","33.25586","130.26553","1058332-10","","0","1058332","",""
"1058331-10","","新栄小西(1)","","33.25609","130.26994","1058331-10","","0","1058331","",""
"1058330-10","","新栄小前(1)","","33.2563","130.27626","1058330-10","","0","1058330","",""
"1058329-10","","北高前(1)","","33.25665","130.27917","1058329-10","","0","1058329","",""
"1058328-10","","中折(1)","","33.25737","130.28227","1058328-10","","0","1058328","",""
"1058327-10","","佐賀工業高校前(1)","","33.25796","130.28415","1058327-10","","0","1058327","",""
"1058326-10","","多布施橋(1)","","33.25856","130.28625","1058326-10","","0","1058326","",""
"1058325-10","","多布施(1)","","33.25889","130.28908","1058325-10","","0","1058325","",""
"1058324-10","","どんどんどんの森前(1)","","33.25909","130.29076","1058324-10","","0","1058324","",""
"1024168-01","","どんどんどんの森東(1)","","33.26216","130.29324","1024168-01","","0","1024168","",""
"1030219-04","","堀江通(4)","","33.26297","130.29329","1030219-04","","0","1030219","",""
"1059338-20","","新栄団地(2)","","33.2596","130.27713","1059338-20","","0","1059338","",""
"1059339-20","","八戸溝一丁目(2)","","33.2612","130.27522","1059339-20","","0","1059339","",""
"1059340-20","","八戸溝二丁目(2)","","33.26172","130.27408","1059340-20","","0","1059340","",""
"1059341-20","","西佐賀団地(2)","","33.26128","130.27026","1059341-20","","0","1059341","",""
"1059342-20","","鍋島駅北(2)","","33.26051","130.26585","1059342-20","","0","1059342","",""
"1059343-00","","江頭","","33.26268","130.2641","1059343-00","","0","1059343","",""
"1059344-20","","深町(2)","","33.25474","130.26428","1059344-20","","0","1059344","",""
"1059345-20","","扇町北(2)","","33.24553","130.26585","1059345-20","","0","1059345","",""
"1059345-10","","扇町北(1)","","33.24562","130.26576","1059345-10","","0","1059345","",""
"1059344-10","","深町(1)","","33.25499","130.26419","1059344-10","","0","1059344","",""
"1059342-10","","鍋島駅北(1)","","33.2606","130.26619","1059342-10","","0","1059342","",""
"1059341-10","","西佐賀団地(1)","","33.26141","130.27049","1059341-10","","0","1059341","",""
"1059340-10","","八戸溝二丁目(1)","","33.26178","130.27405","1059340-10","","0","1059340","",""
"1059339-10","","八戸溝一丁目(1)","","33.26164","130.27522","1059339-10","","0","1059339","",""
"1059338-10","","新栄団地(1)","","33.25946","130.27722","1059338-10","","0","1059338","",""
"1060346-20","","佐賀中部病院前(2)","","33.26377","130.31906","1060346-20","","0","1060346","",""
"1060347-02","","修理田(2)","","33.26438","130.32227","1060347-02","","0","1060347","",""
"1060348-20","","中牟田(2)","","33.26637","130.32748","1060348-20","","0","1060348","",""
"1060349-20","","瓦町南(2)","","33.2695","130.33086","1060349-20","","0","1060349","",""
"1060350-20","","瓦町(2)","","33.27159","130.33316","1060350-20","","0","1060350","",""
"1060351-20","","堀立(2)","","33.27503","130.33688","1060351-20","","0","1060351","",""
"1060352-20","","堀立東(2)","","33.27743","130.33842","1060352-20","","0","1060352","",""
"1060353-00","","外野","","33.28102","130.33696","1060353-00","","0","1060353","",""
"1060354-00","","伊賀屋橋","","33.28399","130.33578","1060354-00","","0","1060354","",""
"1060355-20","","伊賀屋(2)","","33.28799","130.33485","1060355-20","","0","1060355","",""
"1060356-00","","中野吉","","33.29118","130.33501","1060356-00","","0","1060356","",""
"1060357-00","","和泉野橋","","33.29678","130.33365","1060357-00","","0","1060357","",""
"1060358-20","","折地(2)","","33.30191","130.33145","1060358-20","","0","1060358","",""
"1060359-20","","下和泉(2)","","33.30361","130.33031","1060359-20","","0","1060359","",""
"1060360-00","","上揚","","33.30836","130.32828","1060360-00","","0","1060360","",""
"1060361-20","","久保泉工業団地東(2)","","33.31077","130.32704","1060361-20","","0","1060361","",""
"1060362-20","","上和泉(2)","","33.31633","130.32631","1060362-20","","0","1060362","",""
"1060363-20","","久保泉小学校前(2)","","33.32163","130.32657","1060363-20","","0","1060363","",""
"1060364-20","","川久保(2)","","33.32463","130.32684","1060364-20","","0","1060364","",""
"1060365-20","","川久保交差点北(2)","","33.32628","130.32701","1060365-20","","0","1060365","",""
"1060366-00","","川久保中","","33.32813","130.3273","1060366-00","","0","1060366","",""
"1060367-00","","上分公民館前","","33.33195","130.32761","1060367-00","","0","1060367","",""
"1060368-00","","勝宿神社","","33.33578","130.32718","1060368-00","","0","1060368","",""
"1060369-00","","清友病院前","","33.34","130.32584","1060369-00","","0","1060369","",""
"1060365-10","","川久保交差点北(1)","","33.32624","130.32716","1060365-10","","0","1060365","",""
"1060364-10","","川久保(1)","","33.32495","130.32701","1060364-10","","0","1060364","",""
"1060363-10","","久保泉小学校前(1)","","33.3215","130.32668","1060363-10","","0","1060363","",""
"1060362-10","","上和泉(1)","","33.31714","130.32651","1060362-10","","0","1060362","",""
"1060361-10","","久保泉工業団地東(1)","","33.31018","130.32747","1060361-10","","0","1060361","",""
"1060359-10","","下和泉(1)","","33.30502","130.3298","1060359-10","","0","1060359","",""
"1060358-10","","折地(1)","","33.30179","130.3317","1060358-10","","0","1060358","",""
"1060355-10","","伊賀屋(1)","","33.28815","130.33488","1060355-10","","0","1060355","",""
"1060352-10","","堀立東(1)","","33.27746","130.33861","1060352-10","","0","1060352","",""
"1060351-10","","堀立(1)","","33.27502","130.33734","1060351-10","","0","1060351","",""
"1060350-10","","瓦町(1)","","33.27224","130.334","1060350-10","","0","1060350","",""
"1060349-10","","瓦町南(1)","","33.26955","130.33107","1060349-10","","0","1060349","",""
"1060348-10","","中牟田(1)","","33.26669","130.32797","1060348-10","","0","1060348","",""
"1060347-01","","修理田(1)","","33.26431","130.32245","1060347-01","","0","1060347","",""
"1060346-10","","佐賀中部病院前(1)","","33.26375","130.31918","1060346-10","","0","1060346","",""
"1065372-00","","諸富ハートフル","","33.22186","130.35483","1065372-00","","0","1065372","",""
"1065375-20","","下早(2)","","33.19881","130.33508","1065375-20","","0","1065375","",""
"1065376-20","","有明漁協東与賀支所前(2)","","33.19952","130.29277","1065376-20","","0","1065376","",""
"1065377-20","","中飯盛(2)","","33.21627","130.28345","1065377-20","","0","1065377","",""
"1065377-10","","中飯盛(1)","","33.21634","130.28352","1065377-10","","0","1065377","",""
"1065376-10","","有明漁協東与賀支所前(1)","","33.19953","130.29295","1065376-10","","0","1065376","",""
"1065375-10","","下早(1)","","33.1989","130.33502","1065375-10","","0","1065375","",""
"1064370-20","","東与賀イオン前(2)","","33.22169","130.3064","1064370-20","","0","1064370","",""
"1064371-20","","小々森北(2)","","33.19732","130.30363","1064371-20","","0","1064371","",""
"1001001-10","","佐賀空港(1)","","33.15378","130.30281","1001001-10","","0","1001001","",""
"1064371-10","","小々森北(1)","","33.19731","130.30348","1064371-10","","0","1064371","",""
"1064370-10","","東与賀イオン前(1)","","33.22163","130.3062","1064370-10","","0","1064370","",""
"3001023-01","","大手口(1)","","33.449556","129.969305","3001023-01","","0","3001023","",""
"3003025-10","","千代田町(1)","","33.44841","129.97446","3003025-10","","0","3003025","",""
"3003026-10","","栄町(1)","","33.44791","129.97537","3003026-10","","0","3003026","",""
"3003027-10","","栄町東(1)","","33.44626","129.9783","3003027-10","","0","3003027","",""
"3003028-10","","船宮(1)","","33.44509","129.98041","3003028-10","","0","3003028","",""
"3003029-10","","松浦橋(1)","","33.44419","129.9828","3003029-10","","0","3003029","",""
"3003030-10","","百人町(1)","","33.44013","129.98676","3003030-10","","0","3003030","",""
"3003031-10","","先石(1)","","33.43617","129.9872","3003031-10","","0","3003031","",""
"3003032-10","","市民グラウンド前(1)","","33.43305","129.98851","3003032-10","","0","3003032","",""
"3019108-20","","文化体育館前(2)","","33.432","129.98906","3019108-20","","0","3019108","",""
"3019107-20","","大土井(2)","","33.42668","129.9888","3019107-20","","0","3019107","",""
"3004036-10","","鬼塚駅前(1)","","33.42046","129.98683","3004036-10","","0","3004036","",""
"3004037-10","","鬼塚(1)","","33.41754","129.98607","3004037-10","","0","3004037","",""
"3004038-10","","春日様前(1)","","33.40892","129.97847","3004038-10","","0","3004038","",""
"3004039-10","","川原橋(1)","","33.40437","129.97336","3004039-10","","0","3004039","",""
"3019106-20","","宇の木(2)","","33.40231","129.96788","3019106-20","","0","3019106","",""
"3019105-20","","千々賀(2)","","33.39946","129.96088","3019105-20","","0","3019105","",""
"3115697-20","","下畑島(2)","","33.39578","129.95557","3115697-20","","0","3115697","",""
"3115696-20","","畑島(2)","","33.39207","129.95242","3115696-20","","0","3115696","",""
"3115695-20","","竹有(2)","","33.38622","129.94823","3115695-20","","0","3115695","",""
"3115694-20","","北波多中学校前(2)","","33.37856","129.95314","3115694-20","","0","3115694","",""
"3066317-20","","徳須恵(2)","","33.37574","129.95056","3066317-20","","0","3066317","",""
"3115692-20","","北波多（岸岳ふるさと館前）(2)","","33.3732","129.94763","3115692-20","","0","3115692","",""
"3115691-20","","行合野(2)","","33.36287","129.9355","3115691-20","","0","3115691","",""
"3115690-20","","志気橋(2)","","33.35098","129.93304","3115690-20","","0","3115690","",""
"3115689-01","","水留(1)","","33.33995","129.93253","3115689-01","","0","3115689","",""
"3115688-20","","大曲(2)","","33.33395","129.93143","3115688-20","","0","3115688","",""
"3115687-20","","高瀬(2)","","33.32788","129.9301","3115687-20","","0","3115687","",""
"3115686-20","","教会前(2)","","33.32001","129.92883","3115686-20","","0","3115686","",""
"3115685-20","","南波多中学校下(2)","","33.31654","129.92906","3115685-20","","0","3115685","",""
"3115684-20","","伊万里ふるさと村(2)","","33.31294","129.92871","3115684-20","","0","3115684","",""
"3115683-20","","小麦原(2)","","33.30747","129.92667","3115683-20","","0","3115683","",""
"3115682-20","","府招(2)","","33.30423","129.92271","3115682-20","","0","3115682","",""
"3115681-20","","富田神社前(2)","","33.30075","129.91878","3115681-20","","0","3115681","",""
"3115680-20","","府招上(2)","","33.29515","129.91437","3115680-20","","0","3115680","",""
"3115679-10","","池の峠(1)","","33.291265","129.90871","3115679-10","","0","3115679","",""
"3115678-20","","十三塚(2)","","33.285","129.90007","3115678-20","","0","3115678","",""
"3115677-20","","永山入口(2)","","33.28078","129.89633","3115677-20","","0","3115677","",""
"3115676-20","","あさひが丘入口(2)","","33.27656","129.89459","3115676-20","","0","3115676","",""
"3115675-20","","白野(2)","","33.2751","129.8932","3115675-20","","0","3115675","",""
"3115674-02","","上伊万里(2)","","33.27346","129.89153","3115674-02","","0","3115674","",""
"3115673-20","","大坪コミュニティセンター前(2)","","33.2742","129.88672","3115673-20","","0","3115673","",""
"3115672-02","","東町（伊万里）(2)","","33.27446","129.88353","3115672-02","","0","3115672","",""
"3115671-03","","伊万里駅前(3)","","33.27277","129.87527","3115671-03","","0","3115671","",""
"3115671-01","","伊万里駅前(1)","","33.27201","129.87645","3115671-01","","0","3115671","",""
"3115672-01","","東町（伊万里）(1)","","33.2746","129.88351","3115672-01","","0","3115672","",""
"3115673-10","","大坪コミュニティセンター前(1)","","33.2743","129.88672","3115673-10","","0","3115673","",""
"3115674-01","","上伊万里(1)","","33.27358","129.89125","3115674-01","","0","3115674","",""
"3115675-10","","白野(1)","","33.27518","129.89294","3115675-10","","0","3115675","",""
"3115676-10","","あさひが丘入口(1)","","33.27801","129.89496","3115676-10","","0","3115676","",""
"3115677-10","","永山入口(1)","","33.2806","129.89595","3115677-10","","0","3115677","",""
"3115678-10","","十三塚(1)","","33.28506","129.8999","3115678-10","","0","3115678","",""
"3115679-20","","池の峠(2)","","33.29194","129.90912","3115679-20","","0","3115679","",""
"3115680-10","","府招上(1)","","33.29484","129.9138","3115680-10","","0","3115680","",""
"3115681-10","","富田神社前(1)","","33.30039","129.91832","3115681-10","","0","3115681","",""
"3115682-10","","府招(1)","","33.30444","129.92285","3115682-10","","0","3115682","",""
"3115683-10","","小麦原(1)","","33.30735","129.92639","3115683-10","","0","3115683","",""
"3115684-10","","伊万里ふるさと村(1)","","33.31314","129.92854","3115684-10","","0","3115684","",""
"3115685-10","","南波多中学校下(1)","","33.31677","129.92892","3115685-10","","0","3115685","",""
"3115686-10","","教会前(1)","","33.32008","129.9286","3115686-10","","0","3115686","",""
"3115687-10","","高瀬(1)","","33.32801","129.92995","3115687-10","","0","3115687","",""
"3115688-10","","大曲(1)","","33.33437","129.93108","3115688-10","","0","3115688","",""
"3115689-02","","水留(2)","","33.33944","129.93204","3115689-02","","0","3115689","",""
"3115690-10","","志気橋(1)","","33.35226","129.93324","3115690-10","","0","3115690","",""
"3115691-10","","行合野(1)","","33.36315","129.93584","3115691-10","","0","3115691","",""
"3115692-10","","北波多（岸岳ふるさと館前）(1)","","33.37329","129.94745","3115692-10","","0","3115692","",""
"3066317-10","","徳須恵(1)","","33.37585","129.95045","3066317-10","","0","3066317","",""
"3115694-10","","北波多中学校前(1)","","33.37853","129.953","3115694-10","","0","3115694","",""
"3115695-10","","竹有(1)","","33.38615","129.94812","3115695-10","","0","3115695","",""
"3115696-10","","畑島(1)","","33.3923","129.95239","3115696-10","","0","3115696","",""
"3115697-10","","下畑島(1)","","33.39556","129.95532","3115697-10","","0","3115697","",""
"3019105-10","","千々賀(1)","","33.3994","129.96017","3019105-10","","0","3019105","",""
"3019106-10","","宇の木(1)","","33.4024","129.96774","3019106-10","","0","3019106","",""
"3004039-20","","川原橋(2)","","33.40514","129.97356","3004039-20","","0","3004039","",""
"3004038-20","","春日様前(2)","","33.40963","129.97903","3004038-20","","0","3004038","",""
"3004037-20","","鬼塚(2)","","33.41664","129.98517","3004037-20","","0","3004037","",""
"3004036-20","","鬼塚駅前(2)","","33.42064","129.98657","3004036-20","","0","3004036","",""
"3019107-10","","大土井(1)","","33.42659","129.98866","3019107-10","","0","3019107","",""
"3019108-10","","文化体育館前(1)","","33.43135","129.98907","3019108-10","","0","3019108","",""
"3003032-20","","市民グラウンド前(2)","","33.4339","129.98801","3003032-20","","0","3003032","",""
"3003031-20","","先石(2)","","33.43709","129.98694","3003031-20","","0","3003031","",""
"3003030-20","","百人町(2)","","33.44024","129.9866","3003030-20","","0","3003030","",""
"3003029-20","","松浦橋(2)","","33.44429","129.98213","3003029-20","","0","3003029","",""
"3003028-20","","船宮(2)","","33.44544","129.9796","3003028-20","","0","3003028","",""
"3003027-20","","栄町東(2)","","33.44674","129.9772","3003027-20","","0","3003027","",""
"3003026-20","","栄町(2)","","33.44781","129.97528","3003026-20","","0","3003026","",""
"3003025-20","","千代田町(2)","","33.44871","129.97359","3003025-20","","0","3003025","",""
"3001023-06","","大手口(6)","","33.449158","129.970644","3001023-06","","0","3001023","",""
"3607004-02","","前原(2)","","33.559317","130.199653","3607004-02","","0","3607004","",""
"3607132-02","","丸田池公園前(2)","","33.5582","130.198505","3607132-02","","0","3607132","",""
"3607216-00","","前原駅北口","","33.557194","130.198765","3607216-00","","0","3607216","",""
"3607131-02","","糸島市役所前(2)","","33.556763","130.195448","3607131-02","","0","3607131","",""
"3607002-02","","荻の浦(2)","","33.552982","130.189487","3607002-02","","0","3607002","",""
"3607001-02","","神在(2)","","33.548345","130.182853","3607001-02","","0","3607001","",""
"3607019-02","","赤坂(2)","","33.547058","130.176372","3607019-02","","0","3607019","",""
"3607020-02","","犬石(2)","","33.546478","130.171181","3607020-02","","0","3607020","",""
"3607262-02","","加布里東口（芥屋線）(2)","","33.547339","130.166603","3607262-02","","0","3607262","",""
"3607261-02","","加布里（芥屋線）(2)","","33.549465","130.163893","3607261-02","","0","3607261","",""
"3607207-02","","小富士東(2)","","33.561062","130.163787","3607207-02","","0","3607207","",""
"3607039-00","","小富士","","33.56116","130.157763","3607039-00","","0","3607039","",""
"3607040-02","","御床(2)","","33.562752","130.15178","3607040-02","","0","3607040","",""
"3607041-00","","二ッ橋","","33.563611","130.145659","3607041-00","","0","3607041","",""
"3607042-02","","松原（志摩町）(2)","","33.565769","130.138432","3607042-02","","0","3607042","",""
"3607043-00","","引津小学校","","33.566676","130.137789","3607043-00","","0","3607043","",""
"3607044-02","","新町(2)","","33.568987","130.132238","3607044-02","","0","3607044","",""
"3607045-00","","元村","","33.571214","130.127948","3607045-00","","0","3607045","",""
"3607046-02","","岐志(2)","","33.57414","130.124565","3607046-02","","0","3607046","",""
"3607047-00","","芥屋支所","","33.576994","130.123226","3607047-00","","0","3607047","",""
"3607048-00","","芥屋グラウンド","","33.583213","130.122793","3607048-00","","0","3607048","",""
"3607049-00","","窯元前（志摩町）","","33.586499","130.121268","3607049-00","","0","3607049","",""
"3607050-00","","東口","","33.589636","130.116258","3607050-00","","0","3607050","",""
"3607051-00","","芥屋購買店","","33.59085","130.112516","3607051-00","","0","3607051","",""
"3607052-00","","芥屋","","33.589282","130.110561","3607052-00","","0","3607052","",""
"3607046-01","","岐志(1)","","33.574295","130.124541","3607046-01","","0","3607046","",""
"3607044-01","","新町(1)","","33.569442","130.131832","3607044-01","","0","3607044","",""
"3607042-01","","松原（志摩町）(1)","","33.565785","130.138629","3607042-01","","0","3607042","",""
"3607040-01","","御床(1)","","33.562732","130.152679","3607040-01","","0","3607040","",""
"3607207-01","","小富士東(1)","","33.561213","130.163791","3607207-01","","0","3607207","",""
"3607261-01","","加布里（芥屋線）(1)","","33.549423","130.163988","3607261-01","","0","3607261","",""
"3607262-01","","加布里東口（芥屋線）(1)","","33.547227","130.166978","3607262-01","","0","3607262","",""
"3607020-01","","犬石(1)","","33.546597","130.170503","3607020-01","","0","3607020","",""
"3607019-01","","赤坂(1)","","33.547157","130.175748","3607019-01","","0","3607019","",""
"3607001-01","","神在(1)","","33.547998","130.181887","3607001-01","","0","3607001","",""
"3607002-01","","荻の浦(1)","","33.552689","130.188861","3607002-01","","0","3607002","",""
"3607131-01","","糸島市役所前(1)","","33.556997","130.196331","3607131-01","","0","3607131","",""
"3607132-01","","丸田池公園前(1)","","33.557996","130.198453","3607132-01","","0","3607132","",""
"3607004-01","","前原(1)","","33.55944","130.199226","3607004-01","","0","3607004","",""
"3607268-02","","商工会前(2)","","33.560368","130.19792","3607268-02","","0","3607268","",""
"3607053-02","","北新地(2)","","33.562173","130.195318","3607053-02","","0","3607053","",""
"3607054-02","","加布羅(2)","","33.565161","130.189779","3607054-02","","0","3607054","",""
"3607080-00","","大石","","33.565739","130.186131","3607080-00","","0","3607080","",""
"3607081-00","","道目木","","33.561171","130.177875","3607081-00","","0","3607081","",""
"3607082-00","","相川","","33.560289","130.169168","3607082-00","","0","3607082","",""
"3607054-01","","加布羅(1)","","33.565158","130.189962","3607054-01","","0","3607054","",""
"3607053-01","","北新地(1)","","33.562184","130.195546","3607053-01","","0","3607053","",""
"3607268-01","","商工会前(1)","","33.560911","130.197885","3607268-01","","0","3607268","",""
"3607193-00","","大石前","","33.567627","130.187128","3607193-00","","0","3607193","",""
"3607194-00","","大浦台","","33.568962","130.185065","3607194-00","","0","3607194","",""
"3607195-00","","大浦池通り","","33.569533","130.18358","3607195-00","","0","3607195","",""
"3607196-00","","堤下","","33.570351","130.186056","3607196-00","","0","3607196","",""
"3607197-00","","大牟田","","33.572423","130.185759","3607197-00","","0","3607197","",""
"3607208-02","","志摩スカイタウン(2)","","33.574565","130.184762","3607208-02","","0","3607208","",""
"3607202-00","","師吉東","","33.573629","130.181747","3607202-00","","0","3607202","",""
"3607198-00","","師吉中","","33.575307","130.179208","3607198-00","","0","3607198","",""
"3607199-00","","師吉公民館","","33.577202","130.178156","3607199-00","","0","3607199","",""
"3607200-00","","師吉荘前","","33.579787","130.179752","3607200-00","","0","3607200","",""
"3607058-02","","初(2)","","33.582285","130.182759","3607058-02","","0","3607058","",""
"3607083-00","","稲留","","33.585913","130.173422","3607083-00","","0","3607083","",""
"3607084-00","","東小金丸","","33.58628","130.164685","3607084-00","","0","3607084","",""
"3607085-00","","西小金丸","","33.587052","130.15951","3607085-00","","0","3607085","",""
"3607086-02","","志摩中入口(2)","","33.588866","130.154756","3607086-02","","0","3607086","",""
"3607087-00","","小富士園前","","33.582467","130.146849","3607087-00","","0","3607087","",""
"3607088-00","","貝塚","","33.576327","130.144848","3607088-00","","0","3607088","",""
"3607042-03","","松原（志摩町）(3)","","33.565605","130.139835","3607042-03","","0","3607042","",""
"3607089-00","","香月","","33.560987","130.134536","3607089-00","","0","3607089","",""
"3607090-00","","久家","","33.558278","130.131897","3607090-00","","0","3607090","",""
"3607091-00","","船越","","33.557347","130.128162","3607091-00","","0","3607091","",""
"3607086-01","","志摩中入口(1)","","33.589031","130.154699","3607086-01","","0","3607086","",""
"3607058-01","","初(1)","","33.581961","130.18329","3607058-01","","0","3607058","",""
"3607208-01","","志摩スカイタウン(1)","","33.574623","130.184709","3607208-01","","0","3607208","",""
"3118761-00","","重橋","","33.34719","129.92009","3118761-00","","0","3118761","",""
"3118762-00","","古里","","33.33898","129.92667","3118762-00","","0","3118762","",""
"3115689-03","","水留(3)","","33.338165","129.930522","3115689-03","","0","3115689","",""
"3121789-00","","宝当桟橋","","33.450031","129.975837","3121789-00","","0","3121789","",""
"3001023-02","","大手口(2)","","33.449551","129.969443","3001023-02","","0","3001023","",""
"3001022-20","","朝日町(2)","","33.4513","129.96432","3001022-20","","0","3001022","",""
"3001021-20","","西朝日町(2)","","33.45347","129.96175","3001021-20","","0","3001021","",""
"3001020-20","","二タ子一丁目（さんて入口）(2)","","33.45734","129.95937","3001020-20","","0","3001020","",""
"3001019-20","","西唐津駅前(2)","","33.46131","129.95726","3001019-20","","0","3001019","",""
"3001018-20","","西唐津二丁目(2)","","33.46466","129.95514","3001018-20","","0","3001018","",""
"3001017-20","","妙見神社下(2)","","33.46697","129.95364","3001017-20","","0","3001017","",""
"3001016-20","","藤崎通り(2)","","33.46841","129.95119","3001016-20","","0","3001016","",""
"3001015-20","","中の瀬(2)","","33.47005","129.94415","3001015-20","","0","3001015","",""
"3001014-20","","八幡橋(2)","","33.47251","129.93971","3001014-20","","0","3001014","",""
"3001013-20","","浜町(2)","","33.47496","129.93773","3001013-20","","0","3001013","",""
"3001012-20","","唐房入口(2)","","33.47914","129.93575","3001012-20","","0","3001012","",""
"3001011-20","","浦(2)","","33.48711","129.93446","3001011-20","","0","3001011","",""
"3001010-22","","岩野(2)","","33.49421","129.92184","3001010-22","","0","3001010","",""
"3001009-00","","八床入口","","33.50062","129.92226","3001009-00","","0","3001009","",""
"3001008-20","","山口茶屋(2)","","33.50266","129.91782","3001008-20","","0","3001008","",""
"3001007-20","","菖蒲(2)","","33.50659","129.91899","3001007-20","","0","3001007","",""
"3001006-20","","菖蒲峠(2)","","33.51288","129.92075","3001006-20","","0","3001006","",""
"3001005-20","","塩鶴(2)","","33.52542","129.90993","3001005-20","","0","3001005","",""
"3001004-20","","中野(2)","","33.52838","129.90611","3001004-20","","0","3001004","",""
"3001003-20","","横竹(2)","","33.53029","129.89845","3001003-20","","0","3001003","",""
"3001002-20","","殿の浦入口(2)","","33.534883","129.893018","3001002-20","","0","3001002","",""
"3001001-00","","呼子","","33.53716","129.89386","3001001-00","","0","3001001","",""
"3001002-10","","殿の浦入口(1)","","33.53507","129.89301","3001002-10","","0","3001002","",""
"3001003-10","","横竹(1)","","33.53046","129.89854","3001003-10","","0","3001003","",""
"3001004-10","","中野(1)","","33.52849","129.90613","3001004-10","","0","3001004","",""
"3001005-10","","塩鶴(1)","","33.52477","129.91061","3001005-10","","0","3001005","",""
"3001006-10","","菖蒲峠(1)","","33.51368","129.9207","3001006-10","","0","3001006","",""
"3001007-10","","菖蒲(1)","","33.50663","129.91911","3001007-10","","0","3001007","",""
"3001008-10","","山口茶屋(1)","","33.50321","129.91794","3001008-10","","0","3001008","",""
"3001010-11","","岩野(1)","","33.49512","129.92117","3001010-11","","0","3001010","",""
"3001011-10","","浦(1)","","33.48726","129.93433","3001011-10","","0","3001011","",""
"3001012-10","","唐房入口(1)","","33.47927","129.93591","3001012-10","","0","3001012","",""
"3001013-10","","浜町(1)","","33.47511","129.9377","3001013-10","","0","3001013","",""
"3001014-10","","八幡橋(1)","","33.47252","129.9399","3001014-10","","0","3001014","",""
"3001015-10","","中の瀬(1)","","33.47057","129.94337","3001015-10","","0","3001015","",""
"3001016-10","","藤崎通り(1)","","33.46845","129.95126","3001016-10","","0","3001016","",""
"3001017-10","","妙見神社下(1)","","33.46719","129.95346","3001017-10","","0","3001017","",""
"3001018-10","","西唐津二丁目(1)","","33.464","129.95572","3001018-10","","0","3001018","",""
"3001019-10","","西唐津駅前(1)","","33.4614","129.95732","3001019-10","","0","3001019","",""
"3001020-10","","二タ子一丁目（さんて入口）(1)","","33.45688","129.95952","3001020-10","","0","3001020","",""
"3001021-10","","西朝日町(1)","","33.45372","129.96165","3001021-10","","0","3001021","",""
"3001022-10","","朝日町(1)","","33.45202","129.96353","3001022-10","","0","3001022","",""
"3015103-20","","唐房(2)","","33.4839","129.93842","3015103-20","","0","3015103","",""
"3015102-00","","玄海水産振興センター","","33.48568","129.94012","3015102-00","","0","3015102","",""
"3015101-20","","門前入口(2)","","33.4889","129.94121","3015101-20","","0","3015101","",""
"3015100-00","","鳩川","","33.49369","129.94411","3015100-00","","0","3015100","",""
"3015099-10","","相賀入口(1)","","33.50191","129.95206","3015099-10","","0","3015099","",""
"3015098-00","","相賀","","33.50618","129.9559","3015098-00","","0","3015098","",""
"3015097-20","","松風園前(2)","","33.51238","129.957","3015097-20","","0","3015097","",""
"3015096-00","","北浜","","33.51811","129.95604","3015096-00","","0","3015096","",""
"3015095-20","","湊入口(2)","","33.52271","129.95567","3015095-20","","0","3015095","",""
"3015094-20","","湊公民館前(2)","","33.52619","129.9523","3015094-20","","0","3015094","",""
"3015093-00","","湊","","33.5264","129.94974","3015093-00","","0","3015093","",""
"3015092-00","","みなと園","","33.52699","129.94525","3015092-00","","0","3015092","",""
"3015091-00","","屋形石入口","","33.53154","129.9314","3015091-00","","0","3015091","",""
"3015090-00","","屋形石","","33.53196","129.92516","3015090-00","","0","3015090","",""
"3015089-00","","七ッ釜入口","","33.53322","129.92102","3015089-00","","0","3015089","",""
"3015088-00","","藤の辻","","33.53577","129.91637","3015088-00","","0","3015088","",""
"3015087-00","","丸田","","33.53706","129.90894","3015087-00","","0","3015087","",""
"3015086-00","","小友入口","","33.53693","129.90517","3015086-00","","0","3015086","",""
"3015085-00","","持山","","33.53527","129.89877","3015085-00","","0","3015085","",""
"3015094-10","","湊公民館前(1)","","33.52626","129.95247","3015094-10","","0","3015094","",""
"3015095-10","","湊入口(1)","","33.52269","129.95586","3015095-10","","0","3015095","",""
"3015097-10","","松風園前(1)","","33.51228","129.95715","3015097-10","","0","3015097","",""
"3015101-10","","門前入口(1)","","33.488708","129.941228","3015101-10","","0","3015101","",""
"3015103-10","","唐房(1)","","33.483608","129.938183","3015103-10","","0","3015103","",""
"3001023-05","","大手口(5)","","33.449522","129.969697","3001023-05","","0","3001023","",""
"3020121-01","","加倉(1)","","33.49094","129.9153","3020121-01","","0","3020121","",""
"3020120-20","","石原(2)","","33.49513","129.90442","3020120-20","","0","3020120","",""
"3020119-20","","白畑入口(2)","","33.49182","129.89445","3020119-20","","0","3020119","",""
"3020118-00","","小加倉","","33.49316","129.88579","3020118-00","","0","3020118","",""
"3020117-20","","浅木場(2)","","33.48955","129.87674","3020117-20","","0","3020117","",""
"3020116-00","","小加倉溜","","33.49212","129.87401","3020116-00","","0","3020116","",""
"3020115-00","","仮立上","","33.49781","129.8532","3020115-00","","0","3020115","",""
"3020114-00","","今村","","33.49976","129.84999","3020114-00","","0","3020114","",""
"3020113-00","","玄海町中通り","","33.50354","129.85104","3020113-00","","0","3020113","",""
"3020112-00","","値賀","","33.50866","129.84726","3020112-00","","0","3020112","",""
"3020111-20","","九州電力今村寮(2)","","33.51094","129.84631","3020111-20","","0","3020111","",""
"3020110-00","","玄海発電所口","","33.51251","129.84302","3020110-00","","0","3020110","",""
"3020109-00","","玄海エネルギーパーク","","33.51368","129.84299","3020109-00","","0","3020109","",""
"3020111-10","","九州電力今村寮(1)","","33.51082","129.84651","3020111-10","","0","3020111","",""
"3020117-10","","浅木場(1)","","33.48915","129.87758","3020117-10","","0","3020117","",""
"3020119-10","","白畑入口(1)","","33.49247","129.89368","3020119-10","","0","3020119","",""
"3020120-10","","石原(1)","","33.4952","129.90442","3020120-10","","0","3020120","",""
"3001010-03","","岩野(3)","","33.494455","129.920335","3001010-03","","0","3001010","",""
"3027143-00","","値賀農協前","","33.49968","129.84621","3027143-00","","0","3027143","",""
"3027144-00","","平尾","","33.49541","129.84567","3027144-00","","0","3027144","",""
"3027145-10","","浜野浦の棚田(1)","","33.49141","129.84811","3027145-10","","0","3027145","",""
"3027146-00","","大薗北","","33.48385","129.84831","3027146-00","","0","3027146","",""
"3027147-00","","大薗","","33.48005","129.84796","3027147-00","","0","3027147","",""
"3027148-10","","石田入口(1)","","33.47585","129.85332","3027148-10","","0","3027148","",""
"3025132-00","","石田橋","","33.47568","129.85141","3025132-00","","0","3025132","",""
"3025131-00","","仮屋","","33.47607","129.8483","3025131-00","","0","3025131","",""
"3025133-00","","玄海海上温泉パレア前","","33.47208","129.8506","3025133-00","","0","3025133","",""
"3025134-00","","津賀根","","33.47067","129.85344","3025134-00","","0","3025134","",""
"3025135-10","","金の手（まいづる９玄海店）(1)","","33.467647","129.858547","3025135-10","","0","3025135","",""
"3025136-10","","新田（玄海町）(1)","","33.47136","129.87123","3025136-10","","0","3025136","",""
"3025137-00","","玄海町役場前","","33.47306","129.87468","3025137-00","","0","3025137","",""
"3025138-10","","田渕医院前(1)","","33.47411","129.876364","3025138-10","","0","3025138","",""
"3025139-10","","有浦上(1)","","33.47703","129.88197","3025139-10","","0","3025139","",""
"3025140-10","","柚の木（玄海町）(1)","","33.47785","129.88997","3025140-10","","0","3025140","",""
"3025141-10","","枝去木(1)","","33.482992","129.906509","3025141-10","","0","3025141","",""
"3025142-10","","枝去木上(1)","","33.48634","129.90971","3025142-10","","0","3025142","",""
"3020121-03","","加倉(3)","","33.49022","129.91527","3020121-03","","0","3020121","",""
"3032150-00","","入野","","33.44143","129.81551","3032150-00","","0","3032150","",""
"3035167-00","","山田前","","33.44504","129.81509","3035167-00","","0","3035167","",""
"3035166-00","","山添","","33.44703","129.81734","3035166-00","","0","3035166","",""
"3035165-00","","柳田橋","","33.4571","129.82059","3035165-00","","0","3035165","",""
"3035164-00","","山口","","33.46339","129.81976","3035164-00","","0","3035164","",""
"3035163-00","","内木場","","33.46487","129.81662","3035163-00","","0","3035163","",""
"3035162-00","","農協前（肥前町）","","33.46683","129.81476","3035162-00","","0","3035162","",""
"3035161-00","","納所","","33.46775","129.8116","3035161-00","","0","3035161","",""
"3025142-20","","枝去木上(2)","","33.48682","129.91042","3025142-20","","0","3025142","",""
"3025141-20","","枝去木(2)","","33.48255","129.906206","3025141-20","","0","3025141","",""
"3025140-20","","柚の木（玄海町）(2)","","33.47767","129.89072","3025140-20","","0","3025140","",""
"3025139-20","","有浦上(2)","","33.47697","129.88228","3025139-20","","0","3025139","",""
"3025138-20","","田渕医院前(2)","","33.47401","129.8764","3025138-20","","0","3025138","",""
"3025136-20","","新田（玄海町）(2)","","33.47124","129.87115","3025136-20","","0","3025136","",""
"3030149-10","","唐津青翔高校前(1)","","33.46583","129.85896","3030149-10","","0","3030149","",""
"3032160-00","","新田第２町営住宅前","","33.4622","129.85902","3032160-00","","0","3032160","",""
"3032159-00","","牟形入口","","33.46","129.85826","3032159-00","","0","3032159","",""
"3032158-20","","牟形(2)","","33.45691","129.85782","3032158-20","","0","3032158","",""
"3032157-20","","牟形コミュニティセンター前(2)","","33.44835","129.86032","3032157-20","","0","3032157","",""
"3032156-00","","太田橋","","33.44671","129.86005","3032156-00","","0","3032156","",""
"3032155-00","","寺浦","","33.44373","129.8485","3032155-00","","0","3032155","",""
"3032154-00","","梅崎","","33.44228","129.839","3032154-00","","0","3032154","",""
"3032153-02","","古保志気(2)","","33.43219","129.82936","3032153-02","","0","3032153","",""
"3032152-00","","長畑","","33.43692","129.8231","3032152-00","","0","3032152","",""
"3032151-00","","肥前中学校前","","33.44066","129.81908","3032151-00","","0","3032151","",""
"3032153-03","","古保志気(3)","","33.4323","129.82945","3032153-03","","0","3032153","",""
"3032157-10","","牟形コミュニティセンター前(1)","","33.44867","129.85959","3032157-10","","0","3032157","",""
"3032158-10","","牟形(1)","","33.45683","129.85779","3032158-10","","0","3032158","",""
"3030149-20","","唐津青翔高校前(2)","","33.46573","129.85872","3030149-20","","0","3030149","",""
"3032153-01","","古保志気(1)","","33.43137","129.82939","3032153-01","","0","3032153","",""
"3038180-00","","田野入口","","33.42918","129.82803","3038180-00","","0","3038180","",""
"3038179-00","","土井の浦","","33.42398","129.82513","3038179-00","","0","3038179","",""
"3038178-00","","高串","","33.42273","129.8262","3038178-00","","0","3038178","",""
"3038177-00","","細浦","","33.42163","129.82925","3038177-00","","0","3038177","",""
"3038176-00","","福祉センター前","","33.42242","129.83235","3038176-00","","0","3038176","",""
"3041193-00","","比恵田","","33.43168","129.8387","3041193-00","","0","3041193","",""
"3041194-00","","新木場","","33.42948","129.84122","3041194-00","","0","3041194","",""
"3041195-00","","放四郎川","","33.4281","129.84622","3041195-00","","0","3041195","",""
"3041196-00","","八折栄","","33.42571","129.85982","3041196-00","","0","3041196","",""
"3041197-00","","瓜ヶ坂入口","","33.42285","129.86292","3041197-00","","0","3041197","",""
"3041198-00","","万賀里川","","33.42233","129.86978","3041198-00","","0","3041198","",""
"3041199-00","","万賀里川入口","","33.42224","129.87111","3041199-00","","0","3041199","",""
"3041200-10","","ぼたんと緑の丘入口(1)","","33.42433","129.8754","3041200-10","","0","3041200","",""
"3041201-00","","切木郵便局前","","33.42783","129.88098","3041201-00","","0","3041201","",""
"3041202-00","","切木","","33.42785","129.88391","3041202-00","","0","3041202","",""
"3041203-00","","雨溜","","33.42513","129.90195","3041203-00","","0","3041203","",""
"3041204-00","","稲荷茶屋","","33.42677","129.90691","3041204-00","","0","3041204","",""
"3041205-10","","小十入口(1)","","33.42471","129.91653","3041205-10","","0","3041205","",""
"3041206-10","","竹木場(1)","","33.42181","129.92067","3041206-10","","0","3041206","",""
"3041207-00","","椎木茶屋","","33.42469","129.92448","3041207-00","","0","3041207","",""
"3041208-00","","川原","","33.42793","129.92644","3041208-00","","0","3041208","",""
"3041209-00","","八谷橋","","33.42853","129.93712","3041209-00","","0","3041209","",""
"3041210-00","","平木場","","33.43227","129.94034","3041210-00","","0","3041210","",""
"3041211-00","","平木場ダム","","33.43313","129.94315","3041211-00","","0","3041211","",""
"3041212-00","","窯元前（唐津）","","33.43637","129.94839","3041212-00","","0","3041212","",""
"3041213-00","","お茶の水","","33.43899","129.95131","3041213-00","","0","3041213","",""
"3041214-10","","神田(1)","","33.43985","129.95441","3041214-10","","0","3041214","",""
"3041215-10","","見借分道(1)","","33.44201","129.95853","3041215-10","","0","3041215","",""
"3041216-00","","長松校前","","33.44405","129.96045","3041216-00","","0","3041216","",""
"3041217-00","","熊の原","","33.44586","129.9622","3041217-00","","0","3041217","",""
"3041218-10","","坊主町(1)","","33.44938","129.9646","3041218-10","","0","3041218","",""
"3041218-20","","坊主町(2)","","33.44981","129.96481","3041218-20","","0","3041218","",""
"3041214-20","","神田(2)","","33.43964","129.9541","3041214-20","","0","3041214","",""
"3041206-20","","竹木場(2)","","33.421525","129.920395","3041206-20","","0","3041206","",""
"3041205-20","","小十入口(2)","","33.42437","129.91629","3041205-20","","0","3041205","",""
"3041200-20","","ぼたんと緑の丘入口(2)","","33.42361","129.87474","3041200-20","","0","3041200","",""
"3047233-10","","ネッツトヨタ前(1)","","33.42993","129.98776","3047233-10","","0","3047233","",""
"3047234-10","","西山(1)","","33.42881","129.98407","3047234-10","","0","3047234","",""
"3004035-20","","丸宗(2)","","33.43188","129.98093","3004035-20","","0","3004035","",""
"3007049-20","","本村(2)","","33.43521","129.98073","3007049-20","","0","3007049","",""
"3007048-20","","用尺南(2)","","33.43755","129.98161","3007048-20","","0","3007048","",""
"3007047-20","","五中前(2)","","33.4401","129.98259","3007047-20","","0","3007047","",""
"3007047-10","","五中前(1)","","33.43999","129.98265","3007047-10","","0","3007047","",""
"3007048-10","","用尺南(1)","","33.43689","129.98145","3007048-10","","0","3007048","",""
"3007049-10","","本村(1)","","33.43511","129.98079","3007049-10","","0","3007049","",""
"3004035-10","","丸宗(1)","","33.43183","129.98126","3004035-10","","0","3004035","",""
"3047234-20","","西山(2)","","33.42903","129.98381","3047234-20","","0","3047234","",""
"3047233-20","","ネッツトヨタ前(2)","","33.43015","129.98781","3047233-20","","0","3047233","",""
"3084482-20","","駄市川原(2)","","33.30918","130.2765","3084482-20","","0","3084482","",""
"3084481-20","","大和中学校前(2)","","33.3091","130.2693","3084481-20","","0","3084481","",""
"3084480-20","","立石(2)","","33.30841","130.26509","3084480-20","","0","3084480","",""
"3084479-00","","大橋（大和町）","","33.3076","130.25954","3084479-00","","0","3084479","",""
"3084478-20","","中極(2)","","33.30648","130.25407","3084478-20","","0","3084478","",""
"3084477-20","","大久保（大和町）(2)","","33.30491","130.24936","3084477-20","","0","3084477","",""
"3084476-00","","江熊野","","33.304","130.24614","3084476-00","","0","3084476","",""
"3084475-20","","大和特別支援学校前(2)","","33.3034","130.24283","3084475-20","","0","3084475","",""
"3084474-00","","今古賀（大和町）","","33.30307","130.24059","3084474-00","","0","3084474","",""
"3084473-20","","山王(2)","","33.30253","130.2374","3084473-20","","0","3084473","",""
"3084472-20","","今市(2)","","33.3016","130.23155","3084472-20","","0","3084472","",""
"3084471-20","","大地町(2)","","33.3005","130.22481","3084471-20","","0","3084471","",""
"3084470-00","","御門前","","33.29962","130.21547","3084470-00","","0","3084470","",""
"3084469-20","","高原(2)","","33.2997","130.20746","3084469-20","","0","3084469","",""
"3084468-20","","上町（小城）(2)","","33.29997","130.20392","3084468-20","","0","3084468","",""
"3084467-00","","ひらまつ病院","","33.29765","130.20076","3084467-00","","0","3084467","",""
"3084466-20","","下町（小城）(2)","","33.29544","130.20117","3084466-20","","0","3084466","",""
"3080413-00","","小城","","33.29356","130.19905","3080413-00","","0","3080413","",""
"3084466-10","","下町（小城）(1)","","33.29549","130.20103","3084466-10","","0","3084466","",""
"3084468-10","","上町（小城）(1)","","33.30029","130.20396","3084468-10","","0","3084468","",""
"3084469-10","","高原(1)","","33.29976","130.20753","3084469-10","","0","3084469","",""
"3084471-10","","大地町(1)","","33.30087","130.22607","3084471-10","","0","3084471","",""
"3084472-10","","今市(1)","","33.30174","130.23181","3084472-10","","0","3084472","",""
"3084473-10","","山王(1)","","33.30238","130.23553","3084473-10","","0","3084473","",""
"3084475-10","","大和特別支援学校前(1)","","33.30354","130.24319","3084475-10","","0","3084475","",""
"3084477-10","","大久保（大和町）(1)","","33.3051","130.24971","3084477-10","","0","3084477","",""
"3084478-10","","中極(1)","","33.30711","130.25543","3084478-10","","0","3084478","",""
"3084480-10","","立石(1)","","33.30838","130.26421","3084480-10","","0","3084480","",""
"3084481-10","","大和中学校前(1)","","33.30915","130.26854","3084481-10","","0","3084481","",""
"3084482-10","","駄市川原(1)","","33.30931","130.27759","3084482-10","","0","3084482","",""
"1036276-02","","アルタ高木瀬店前(2)","","33.29272","130.28627","1036276-02","","0","1036276","",""
"3084495-10","","商業校門前(1)","","33.27013","130.29572","3084495-10","","0","3084495","",""
"3084496-10","","三溝東(1)","","33.26789","130.29671","3084496-10","","0","3084496","",""
"1001002-07","","佐賀駅バスセンター 7番のりば","","33.26465","130.29899","1001002-07","","0","1001002","",""
"3084498-20","","愛敬町(2)","","33.26215","130.29993","3084498-20","","0","3084498","",""
"3070346-00","","イオン前","","33.43647","130.01234","3070346-00","","0","3070346","",""
"3004042-00","","工業高校前","","33.39433","129.97163","3004042-00","","0","3004042","",""
"3019104-00","","石志","","33.3928","129.96512","3019104-00","","0","3019104","",""
"3606194-00","","姪浜駅南口","","33.583485","130.324926","3606194-00","","0","3606194","",""
"3606018-02","","姪の浜(2)","","33.587314","130.324555","3606018-02","","0","3606018","",""
"3606019-02","","小戸(2)","","33.586941","130.317335","3606019-02","","0","3606019","",""
"3606121-02","","小戸中央(2)","","33.588829","130.315195","3606121-02","","0","3606121","",""
"3606120-02","","小戸公園(2)","","33.590888","130.315018","3606120-02","","0","3606120","",""
"3606119-00","","マリノアシティ福岡","","33.596005","130.321134","3606119-00","","0","3606119","",""
"3004040-20","","鬼塚中学校前(2)","","33.40186","129.97414","3004040-20","","0","3004040","",""
"3004041-10","","唐津自動車学校前(1)","","33.39749","129.97803","3004041-10","","0","3004041","",""
"3066323-20","","山本(2)","","33.39225","129.98111","3066323-20","","0","3066323","",""
"3066322-20","","心月寺前(2)","","33.38624","129.98322","3066322-20","","0","3066322","",""
"3080460-20","","鹿の口(2)","","33.38372","129.9854","3080460-20","","0","3080460","",""
"3080459-20","","三段間(2)","","33.37231","129.99678","3080459-20","","0","3080459","",""
"3080458-20","","牟田部(2)","","33.36707","130.00172","3080458-20","","0","3080458","",""
"3080457-20","","久保(2)","","33.35783","130.00446","3080457-20","","0","3080457","",""
"3080456-20","","相知山崎(2)","","33.35311","130.00615","3080456-20","","0","3080456","",""
"3080455-20","","末広町(2)","","33.35231","130.00833","3080455-20","","0","3080455","",""
"3080454-20","","相知市民センター前(2)","","33.35095","130.01135","3080454-20","","0","3080454","",""
"3080453-20","","相知郵便局前(2)","","33.34955","130.01349","3080453-20","","0","3080453","",""
"3080452-20","","相知駅前(2)","","33.34726","130.01974","3080452-20","","0","3080452","",""
"3080451-20","","鷹取(2)","","33.34463","130.02591","3080451-20","","0","3080451","",""
"3080450-20","","長部田(2)","","33.34229","130.02922","3080450-20","","0","3080450","",""
"3080449-20","","相知警察署前(2)","","33.33972","130.03275","3080449-20","","0","3080449","",""
"3080448-20","","田頭橋(2)","","33.33445","130.03859","3080448-20","","0","3080448","",""
"3080447-20","","岩屋駅前(2)","","33.33137","130.0383","3080447-20","","0","3080447","",""
"3080446-20","","岩屋（厳木）(2)","","33.32854","130.03827","3080446-20","","0","3080446","",""
"3080445-20","","町切(2)","","33.32641","130.0403","3080445-20","","0","3080445","",""
"3080444-20","","箞木小学校前(2)","","33.32387","130.04626","3080444-20","","0","3080444","",""
"3080443-20","","大橋（厳木）(2)","","33.32364","130.05359","3080443-20","","0","3080443","",""
"3080442-20","","厳木駅前(2)","","33.3232","130.0609","3080442-20","","0","3080442","",""
"3080441-20","","厳木市民センター前(2)","","33.32138","130.06535","3080441-20","","0","3080441","",""
"3080440-10","","厳木中学校前(1)","","33.31669","130.06607","3080440-10","","0","3080440","",""
"3080461-00","","きゅうらぎ温泉","","33.31422","130.06844","3080461-00","","0","3080461","",""
"3080439-20","","牧瀬(2)","","33.313968","130.070622","3080439-20","","0","3080439","",""
"3080438-20","","コミニティーセンタ前(2)","","33.31261","130.07297","3080438-20","","0","3080438","",""
"3080437-20","","笹原峠(2)","","33.30761","130.07578","3080437-20","","0","3080437","",""
"3080436-20","","番所(2)","","33.29911","130.08461","3080436-20","","0","3080436","",""
"3080435-20","","莇原北町(2)","","33.29447","130.08861","3080435-20","","0","3080435","",""
"3080434-20","","莇原中町(2)","","33.2912","130.09181","3080434-20","","0","3080434","",""
"3080433-00","","多久駅北口","","33.28842","130.09575","3080433-00","","0","3080433","",""
"3080432-20","","砂原(2)","","33.28829","130.09853","3080432-20","","0","3080432","",""
"3080431-20","","公園入口(2)","","33.28773","130.10124","3080431-20","","0","3080431","",""
"3080430-20","","多久市児童センター前(2)","","33.28627","130.10825","3080430-20","","0","3080430","",""
"3080429-20","","多久市役所(2)","","33.28854","130.11046","3080429-20","","0","3080429","",""
"3080428-20","","多久原(2)","","33.29084","130.1147","3080428-20","","0","3080428","",""
"3080427-20","","両の原(2)","","33.28802","130.12422","3080427-20","","0","3080427","",""
"3080426-20","","大工田西(2)","","33.28735","130.12674","3080426-20","","0","3080426","",""
"3080425-20","","大工田(2)","","33.28644","130.13019","3080425-20","","0","3080425","",""
"3080424-20","","別府(2)","","33.28399","130.13927","3080424-20","","0","3080424","",""
